{
"type": "FeatureCollection",
"name": "education_facilities",
"crs": { "type": "name", "properties": { "name": "urn:ogc:def:crs:OGC:1.3:CRS84" } },
"features": [
{ "type": "Feature", "properties": { "osm_id": 5037550725, "osm_type": "nodes", "name": "معهد لان تك", "name:en": null, "name:ar": "معهد لان تك", "amenity": "school" }, "geometry": { "type": "Point", "coordinates": [ 42.9460123, 14.7994131 ] } },
{ "type": "Feature", "properties": { "osm_id": 5031234521, "osm_type": "nodes", "name": "مدرسة الشافعي الاهلية", "name:en": null, "name:ar": "مدرسة الشافعي الاهلية", "amenity": "school" }, "geometry": { "type": "Point", "coordinates": [ 42.9751825, 14.8041033 ] } },
{ "type": "Feature", "properties": { "osm_id": 8061839986, "osm_type": "nodes", "name": "مدرسة نسيبة بنت كعب", "name:en": null, "name:ar": null, "amenity": "school" }, "geometry": { "type": "Point", "coordinates": [ 43.0302661, 15.7253856 ] } },
{ "type": "Feature", "properties": { "osm_id": 7581330285, "osm_type": "nodes", "name": "عمر ابن الخطاب", "name:en": null, "name:ar": null, "amenity": "school" }, "geometry": { "type": "Point", "coordinates": [ 44.1243338, 15.4171527 ] } },
{ "type": "Feature", "properties": { "osm_id": 5693736021, "osm_type": "nodes", "name": "مدرسة المليانة بني طيبة", "name:en": null, "name:ar": null, "amenity": "school" }, "geometry": { "type": "Point", "coordinates": [ 44.1147616, 14.484866 ] } },
{ "type": "Feature", "properties": { "osm_id": 8576300472, "osm_type": "nodes", "name": null, "name:en": null, "name:ar": null, "amenity": "school" }, "geometry": { "type": "Point", "coordinates": [ 45.7193363, 14.8095292 ] } },
{ "type": "Feature", "properties": { "osm_id": 3777088318, "osm_type": "nodes", "name": "مدرسة شهداء الجوية للبنات", "name:en": "Shuhada Al-Jawia School", "name:ar": "مدرسة شهداء الجوية للبنات", "amenity": null }, "geometry": { "type": "Point", "coordinates": [ 44.2198209, 15.445929 ] } },
{ "type": "Feature", "properties": { "osm_id": 3773070279, "osm_type": "nodes", "name": "مدرسة الفتح", "name:en": null, "name:ar": "مدرسة الفتح", "amenity": null }, "geometry": { "type": "Point", "coordinates": [ 44.2349378, 15.4635884 ] } },
{ "type": "Feature", "properties": { "osm_id": 5200289521, "osm_type": "nodes", "name": "مدرسة زيد الموشكي", "name:en": null, "name:ar": null, "amenity": "school" }, "geometry": { "type": "Point", "coordinates": [ 44.1970867, 15.3084866 ] } },
{ "type": "Feature", "properties": { "osm_id": 5878121444, "osm_type": "nodes", "name": "مدرسة وديان حدة", "name:en": null, "name:ar": null, "amenity": "school" }, "geometry": { "type": "Point", "coordinates": [ 44.1859798, 15.3277566 ] } },
{ "type": "Feature", "properties": { "osm_id": 10632742516, "osm_type": "nodes", "name": "مدرسة سكينة الثانوية للبنات", "name:en": null, "name:ar": null, "amenity": "school" }, "geometry": { "type": "Point", "coordinates": [ 44.2275328, 15.3290451 ] } },
{ "type": "Feature", "properties": { "osm_id": 5043695721, "osm_type": "nodes", "name": "مدرسة النصر حمر", "name:en": null, "name:ar": "مدرسة النصر حمر", "amenity": "school" }, "geometry": { "type": "Point", "coordinates": [ 43.9026959, 15.2171609 ] } },
{ "type": "Feature", "properties": { "osm_id": 4182490189, "osm_type": "nodes", "name": "مدرسة الصديق", "name:en": "Alsedeeg school", "name:ar": "مدرسة الصديق", "amenity": "school" }, "geometry": { "type": "Point", "coordinates": [ 44.1657806, 15.3405895 ] } },
{ "type": "Feature", "properties": { "osm_id": 4182443493, "osm_type": "nodes", "name": "مدرسة ام هاني للبنات", "name:en": null, "name:ar": "مدرسة ام هاني للبنات", "amenity": "school" }, "geometry": { "type": "Point", "coordinates": [ 44.1665804, 15.343882 ] } },
{ "type": "Feature", "properties": { "osm_id": 6937218347, "osm_type": "nodes", "name": "المعهد العلمي العالي", "name:en": "Al Ma`had al `Ilmi al `Ali", "name:ar": "المعهد العلمي العالي", "amenity": "college" }, "geometry": { "type": "Point", "coordinates": [ 43.754204, 16.937837 ] } },
{ "type": "Feature", "properties": { "osm_id": 5878121448, "osm_type": "nodes", "name": "كلية الهندسة", "name:en": null, "name:ar": null, "amenity": "college" }, "geometry": { "type": "Point", "coordinates": [ 44.1848757, 15.3264336 ] } },
{ "type": "Feature", "properties": { "osm_id": 6022377620, "osm_type": "nodes", "name": "جامعة الحضارة", "name:en": "Civilization University", "name:ar": null, "amenity": "university" }, "geometry": { "type": "Point", "coordinates": [ 44.1945529, 15.3106484 ] } },
{ "type": "Feature", "properties": { "osm_id": 4182443191, "osm_type": "nodes", "name": "جامعة سبأ", "name:en": "Sheba university", "name:ar": "جامعة سبأ", "amenity": "university" }, "geometry": { "type": "Point", "coordinates": [ 44.168472, 15.3438058 ] } },
{ "type": "Feature", "properties": { "osm_id": 5176505323, "osm_type": "nodes", "name": "مدراس السهيل الاهلية", "name:en": null, "name:ar": "مدراس السهيل الاهلية", "amenity": "kindergarten" }, "geometry": { "type": "Point", "coordinates": [ 44.2287779, 15.2993735 ] } },
{ "type": "Feature", "properties": { "osm_id": 8395478475, "osm_type": "nodes", "name": "مدرسة القادسية", "name:en": null, "name:ar": null, "amenity": "school" }, "geometry": { "type": "Point", "coordinates": [ 44.2292012, 15.3067334 ] } },
{ "type": "Feature", "properties": { "osm_id": 8383195318, "osm_type": "nodes", "name": "مدارس الجزيرة فرع البنين", "name:en": null, "name:ar": null, "amenity": "school" }, "geometry": { "type": "Point", "coordinates": [ 44.1925507, 15.3043679 ] } },
{ "type": "Feature", "properties": { "osm_id": 7524076385, "osm_type": "nodes", "name": "مدرسة أزال ( حدة)", "name:en": "Azzal School", "name:ar": null, "amenity": "school" }, "geometry": { "type": "Point", "coordinates": [ 44.1910628, 15.3066583 ] } },
{ "type": "Feature", "properties": { "osm_id": 7294968596, "osm_type": "nodes", "name": "مدرسة أزال", "name:en": "Madrasat Azal", "name:ar": "مدرسة أزال", "amenity": "school" }, "geometry": { "type": "Point", "coordinates": [ 44.19423, 15.30764 ] } },
{ "type": "Feature", "properties": { "osm_id": 5009368123, "osm_type": "nodes", "name": "مدرسة الأمجاد الأهلية-حدة", "name:en": "Alamjad school", "name:ar": null, "amenity": "school" }, "geometry": { "type": "Point", "coordinates": [ 44.1855807, 15.332455 ] } },
{ "type": "Feature", "properties": { "osm_id": 5792789999, "osm_type": "nodes", "name": "مدرسة الدحل", "name:en": null, "name:ar": null, "amenity": "school" }, "geometry": { "type": "Point", "coordinates": [ 44.8915, 16.7157 ] } },
{ "type": "Feature", "properties": { "osm_id": 7700173113, "osm_type": "nodes", "name": "مدرسة عمران", "name:en": null, "name:ar": null, "amenity": "school" }, "geometry": { "type": "Point", "coordinates": [ 43.9553349, 15.6566306 ] } },
{ "type": "Feature", "properties": { "osm_id": 7205596785, "osm_type": "nodes", "name": "مدارس أنوار العلى", "name:en": "Anwar Al Ola School", "name:ar": null, "amenity": "school" }, "geometry": { "type": "Point", "coordinates": [ 44.159698, 15.4076066 ] } },
{ "type": "Feature", "properties": { "osm_id": 8503983717, "osm_type": "nodes", "name": "مدرسة السلام للبنات", "name:en": null, "name:ar": null, "amenity": "school" }, "geometry": { "type": "Point", "coordinates": [ 44.1599823, 15.3944187 ] } },
{ "type": "Feature", "properties": { "osm_id": 6573169087, "osm_type": "nodes", "name": "مدرسة فرسان اليمن", "name:en": null, "name:ar": null, "amenity": "school" }, "geometry": { "type": "Point", "coordinates": [ 44.1546347, 15.3998293 ] } },
{ "type": "Feature", "properties": { "osm_id": 6578028110, "osm_type": "nodes", "name": "فرسان اليمن", "name:en": null, "name:ar": null, "amenity": "school" }, "geometry": { "type": "Point", "coordinates": [ 44.1546347, 15.3998293 ] } },
{ "type": "Feature", "properties": { "osm_id": 6670056188, "osm_type": "nodes", "name": "اميدست", "name:en": null, "name:ar": null, "amenity": "college" }, "geometry": { "type": "Point", "coordinates": [ 44.1872293, 15.336128 ] } },
{ "type": "Feature", "properties": { "osm_id": 7725482380, "osm_type": "nodes", "name": "مبنى الإدارة الرئيسي لجامعة الملكة أروى", "name:en": null, "name:ar": null, "amenity": "college" }, "geometry": { "type": "Point", "coordinates": [ 44.1860775, 15.3257907 ] } },
{ "type": "Feature", "properties": { "osm_id": 5070410521, "osm_type": "nodes", "name": "كلية الشرطة", "name:en": null, "name:ar": null, "amenity": "college" }, "geometry": { "type": "Point", "coordinates": [ 44.207064, 15.341916 ] } },
{ "type": "Feature", "properties": { "osm_id": 5789120732, "osm_type": "nodes", "name": "الجامعة الأردنية", "name:en": "Jordanian Univercity", "name:ar": null, "amenity": "university" }, "geometry": { "type": "Point", "coordinates": [ 44.1869187, 15.3044142 ] } },
{ "type": "Feature", "properties": { "osm_id": 4957875929, "osm_type": "nodes", "name": "الجامعة الإماراتية", "name:en": "Emirates University", "name:ar": "الجامعه الاماراتيه", "amenity": "university" }, "geometry": { "type": "Point", "coordinates": [ 44.1859984, 15.3123961 ] } },
{ "type": "Feature", "properties": { "osm_id": 8383195121, "osm_type": "nodes", "name": "رياض ومدارس السلسبيل الاهلية", "name:en": null, "name:ar": null, "amenity": "school" }, "geometry": { "type": "Point", "coordinates": [ 44.1747816, 15.3659177 ] } },
{ "type": "Feature", "properties": { "osm_id": 1461474645, "osm_type": "nodes", "name": "مدارس جيل الامجاد", "name:en": null, "name:ar": null, "amenity": "school" }, "geometry": { "type": "Point", "coordinates": [ 44.0322752, 13.5749629 ] } },
{ "type": "Feature", "properties": { "osm_id": 1461475037, "osm_type": "nodes", "name": "مدارس الرياده الاهلية", "name:en": null, "name:ar": null, "amenity": "school" }, "geometry": { "type": "Point", "coordinates": [ 44.0327504, 13.5746257 ] } },
{ "type": "Feature", "properties": { "osm_id": 2817366326, "osm_type": "nodes", "name": "مدرسة الصديق الأساسية والثانوية", "name:en": null, "name:ar": null, "amenity": "school" }, "geometry": { "type": "Point", "coordinates": [ 44.0176291, 13.5878192 ] } },
{ "type": "Feature", "properties": { "osm_id": 7575155644, "osm_type": "nodes", "name": null, "name:en": null, "name:ar": null, "amenity": "school" }, "geometry": { "type": "Point", "coordinates": [ 50.0004476, 14.9841563 ] } },
{ "type": "Feature", "properties": { "osm_id": 12538705811, "osm_type": "nodes", "name": "روضة ومدرسة رؤيتي", "name:en": null, "name:ar": null, "amenity": "school" }, "geometry": { "type": "Point", "coordinates": [ 44.2009627, 15.3071011 ] } },
{ "type": "Feature", "properties": { "osm_id": 4690487997, "osm_type": "nodes", "name": "المدرسة البريطانية الدولية", "name:en": null, "name:ar": null, "amenity": "school" }, "geometry": { "type": "Point", "coordinates": [ 44.1944598, 15.3023918 ] } },
{ "type": "Feature", "properties": { "osm_id": 12538695260, "osm_type": "nodes", "name": "مدارس المدار", "name:en": null, "name:ar": null, "amenity": "school" }, "geometry": { "type": "Point", "coordinates": [ 44.1972025, 15.3076502 ] } },
{ "type": "Feature", "properties": { "osm_id": 7575310189, "osm_type": "nodes", "name": "الرواد الاهليه", "name:en": null, "name:ar": null, "amenity": "school" }, "geometry": { "type": "Point", "coordinates": [ 44.1757836, 13.9502105 ] } },
{ "type": "Feature", "properties": { "osm_id": 261733782, "osm_type": "nodes", "name": "مركز تدريب اللغة", "name:en": null, "name:ar": null, "amenity": "school" }, "geometry": { "type": "Point", "coordinates": [ 44.1971627, 15.3074794 ] } },
{ "type": "Feature", "properties": { "osm_id": 8420049878, "osm_type": "nodes", "name": "مدارس اكسفورد شموخ اليمن التربوية", "name:en": null, "name:ar": null, "amenity": "school" }, "geometry": { "type": "Point", "coordinates": [ 44.2000642, 15.3064009 ] } },
{ "type": "Feature", "properties": { "osm_id": 12538695295, "osm_type": "nodes", "name": "مدارس الدرب الأهلية", "name:en": null, "name:ar": null, "amenity": "school" }, "geometry": { "type": "Point", "coordinates": [ 44.1978449, 15.3050692 ] } },
{ "type": "Feature", "properties": { "osm_id": 9230703031, "osm_type": "nodes", "name": "مدرسة ذي النورين ببدش", "name:en": null, "name:ar": null, "amenity": "school" }, "geometry": { "type": "Point", "coordinates": [ 44.4182933, 14.6703833 ] } },
{ "type": "Feature", "properties": { "osm_id": 8758254955, "osm_type": "nodes", "name": null, "name:en": null, "name:ar": null, "amenity": "school" }, "geometry": { "type": "Point", "coordinates": [ 47.9332799, 15.0277015 ] } },
{ "type": "Feature", "properties": { "osm_id": 8760730285, "osm_type": "nodes", "name": null, "name:en": null, "name:ar": null, "amenity": "school" }, "geometry": { "type": "Point", "coordinates": [ 46.2752937, 13.9979108 ] } },
{ "type": "Feature", "properties": { "osm_id": 8757716691, "osm_type": "nodes", "name": null, "name:en": null, "name:ar": null, "amenity": "school" }, "geometry": { "type": "Point", "coordinates": [ 49.7602695, 14.7929246 ] } },
{ "type": "Feature", "properties": { "osm_id": 8764566516, "osm_type": "nodes", "name": null, "name:en": null, "name:ar": null, "amenity": "school" }, "geometry": { "type": "Point", "coordinates": [ 45.9648764, 13.839179 ] } },
{ "type": "Feature", "properties": { "osm_id": 8760477263, "osm_type": "nodes", "name": null, "name:en": null, "name:ar": null, "amenity": "school" }, "geometry": { "type": "Point", "coordinates": [ 46.1537361, 14.1849592 ] } },
{ "type": "Feature", "properties": { "osm_id": 8761472116, "osm_type": "nodes", "name": null, "name:en": null, "name:ar": null, "amenity": "school" }, "geometry": { "type": "Point", "coordinates": [ 45.7742572, 13.8072553 ] } },
{ "type": "Feature", "properties": { "osm_id": 8764832187, "osm_type": "nodes", "name": null, "name:en": null, "name:ar": null, "amenity": "school" }, "geometry": { "type": "Point", "coordinates": [ 46.9203436, 14.0624096 ] } },
{ "type": "Feature", "properties": { "osm_id": 8568262918, "osm_type": "nodes", "name": "المحفد", "name:en": "Al Mahfad", "name:ar": null, "amenity": "school" }, "geometry": { "type": "Point", "coordinates": [ 46.9157508, 14.0640437 ] } },
{ "type": "Feature", "properties": { "osm_id": 8764832188, "osm_type": "nodes", "name": null, "name:en": null, "name:ar": null, "amenity": "school" }, "geometry": { "type": "Point", "coordinates": [ 46.9108218, 14.0603385 ] } },
{ "type": "Feature", "properties": { "osm_id": 8759753049, "osm_type": "nodes", "name": null, "name:en": null, "name:ar": null, "amenity": "school" }, "geometry": { "type": "Point", "coordinates": [ 46.8536947, 14.0804218 ] } },
{ "type": "Feature", "properties": { "osm_id": 8760483012, "osm_type": "nodes", "name": null, "name:en": null, "name:ar": null, "amenity": "school" }, "geometry": { "type": "Point", "coordinates": [ 46.5976953, 13.9927897 ] } },
{ "type": "Feature", "properties": { "osm_id": 8760482947, "osm_type": "nodes", "name": null, "name:en": null, "name:ar": null, "amenity": "school" }, "geometry": { "type": "Point", "coordinates": [ 46.4251247, 13.6179784 ] } },
{ "type": "Feature", "properties": { "osm_id": 10675647423, "osm_type": "nodes", "name": null, "name:en": null, "name:ar": null, "amenity": "school" }, "geometry": { "type": "Point", "coordinates": [ 49.0217149, 14.6971096 ] } },
{ "type": "Feature", "properties": { "osm_id": 7062915714, "osm_type": "nodes", "name": null, "name:en": null, "name:ar": null, "amenity": "school" }, "geometry": { "type": "Point", "coordinates": [ 48.9917761, 14.7493971 ] } },
{ "type": "Feature", "properties": { "osm_id": 7058214247, "osm_type": "nodes", "name": null, "name:en": null, "name:ar": null, "amenity": "school" }, "geometry": { "type": "Point", "coordinates": [ 48.652997, 14.1339226 ] } },
{ "type": "Feature", "properties": { "osm_id": 8295567744, "osm_type": "nodes", "name": null, "name:en": null, "name:ar": null, "amenity": "school" }, "geometry": { "type": "Point", "coordinates": [ 49.4146746, 14.9532381 ] } },
{ "type": "Feature", "properties": { "osm_id": 6680458277, "osm_type": "nodes", "name": null, "name:en": null, "name:ar": null, "amenity": "school" }, "geometry": { "type": "Point", "coordinates": [ 49.8023236, 14.8556401 ] } },
{ "type": "Feature", "properties": { "osm_id": 8522229895, "osm_type": "nodes", "name": null, "name:en": null, "name:ar": null, "amenity": "school" }, "geometry": { "type": "Point", "coordinates": [ 48.3209181, 15.2144137 ] } },
{ "type": "Feature", "properties": { "osm_id": 4298021174, "osm_type": "nodes", "name": "روضة الامل", "name:en": null, "name:ar": null, "amenity": "school" }, "geometry": { "type": "Point", "coordinates": [ 48.4571928, 15.8418375 ] } },
{ "type": "Feature", "properties": { "osm_id": 11255219483, "osm_type": "nodes", "name": null, "name:en": null, "name:ar": null, "amenity": "school" }, "geometry": { "type": "Point", "coordinates": [ 47.8107955, 15.0237315 ] } },
{ "type": "Feature", "properties": { "osm_id": 8211379417, "osm_type": "nodes", "name": "مدرسة الشيخ سليمان سعيد بقشان خيلة بقشان", "name:en": null, "name:ar": null, "amenity": "school" }, "geometry": { "type": "Point", "coordinates": [ 48.3868154, 15.2179472 ] } },
{ "type": "Feature", "properties": { "osm_id": 6718116200, "osm_type": "nodes", "name": "ثانوية البنات", "name:en": null, "name:ar": null, "amenity": "school" }, "geometry": { "type": "Point", "coordinates": [ 49.9909516, 14.9093448 ] } },
{ "type": "Feature", "properties": { "osm_id": 6718116219, "osm_type": "nodes", "name": "مدرسة خالد بن الوليد", "name:en": null, "name:ar": null, "amenity": "school" }, "geometry": { "type": "Point", "coordinates": [ 49.9911003, 14.9087552 ] } },
{ "type": "Feature", "properties": { "osm_id": 6718116209, "osm_type": "nodes", "name": "مدرسة عمر بن عبدالعزيز", "name:en": null, "name:ar": null, "amenity": "school" }, "geometry": { "type": "Point", "coordinates": [ 49.9910051, 14.9080798 ] } },
{ "type": "Feature", "properties": { "osm_id": 4597363266, "osm_type": "nodes", "name": null, "name:en": null, "name:ar": null, "amenity": "school" }, "geometry": { "type": "Point", "coordinates": [ 49.9469069, 14.9100094 ] } },
{ "type": "Feature", "properties": { "osm_id": 7575126276, "osm_type": "nodes", "name": null, "name:en": null, "name:ar": null, "amenity": "school" }, "geometry": { "type": "Point", "coordinates": [ 49.9829918, 14.8951263 ] } },
{ "type": "Feature", "properties": { "osm_id": 7575126274, "osm_type": "nodes", "name": "مدرسة خولة للبنات", "name:en": null, "name:ar": null, "amenity": "school" }, "geometry": { "type": "Point", "coordinates": [ 49.9888766, 14.9010362 ] } },
{ "type": "Feature", "properties": { "osm_id": 8295567400, "osm_type": "nodes", "name": null, "name:en": null, "name:ar": null, "amenity": "school" }, "geometry": { "type": "Point", "coordinates": [ 49.0740555, 15.150403 ] } },
{ "type": "Feature", "properties": { "osm_id": 5407378886, "osm_type": "nodes", "name": "مدرسة ال عقار", "name:en": null, "name:ar": null, "amenity": "school" }, "geometry": { "type": "Point", "coordinates": [ 45.4229506, 15.4501841 ] } },
{ "type": "Feature", "properties": { "osm_id": 2591810037, "osm_type": "nodes", "name": "مدرسة ابو بكر الصديق", "name:en": null, "name:ar": null, "amenity": "school" }, "geometry": { "type": "Point", "coordinates": [ 45.3989177, 15.4483637 ] } },
{ "type": "Feature", "properties": { "osm_id": 4358692791, "osm_type": "nodes", "name": "مدرسة جيل الثورة", "name:en": "Jeel Athawrah School", "name:ar": null, "amenity": "school" }, "geometry": { "type": "Point", "coordinates": [ 49.1257764, 14.5381856 ] } },
{ "type": "Feature", "properties": { "osm_id": 4226493089, "osm_type": "nodes", "name": "مدرسة الجماهير", "name:en": "Al-Jamaheer School", "name:ar": null, "amenity": "school" }, "geometry": { "type": "Point", "coordinates": [ 49.1263489, 14.5321959 ] } },
{ "type": "Feature", "properties": { "osm_id": 4269169591, "osm_type": "nodes", "name": "Arrdod primary school", "name:en": null, "name:ar": null, "amenity": "school" }, "geometry": { "type": "Point", "coordinates": [ 49.0182427, 15.8688511 ] } },
{ "type": "Feature", "properties": { "osm_id": 4319622138, "osm_type": "nodes", "name": "مدارس الصدارة الحديثة", "name:en": "مدارس الصدارة الحديثه", "name:ar": null, "amenity": "school" }, "geometry": { "type": "Point", "coordinates": [ 49.1375793, 14.5586739 ] } },
{ "type": "Feature", "properties": { "osm_id": 4298024863, "osm_type": "nodes", "name": "مدرسه", "name:en": null, "name:ar": null, "amenity": "school" }, "geometry": { "type": "Point", "coordinates": [ 49.2662448, 14.7733483 ] } },
{ "type": "Feature", "properties": { "osm_id": 8733527986, "osm_type": "nodes", "name": null, "name:en": null, "name:ar": null, "amenity": "school" }, "geometry": { "type": "Point", "coordinates": [ 49.3881986, 14.7877849 ] } },
{ "type": "Feature", "properties": { "osm_id": 8736688379, "osm_type": "nodes", "name": null, "name:en": null, "name:ar": null, "amenity": "school" }, "geometry": { "type": "Point", "coordinates": [ 48.3431353, 14.0255226 ] } },
{ "type": "Feature", "properties": { "osm_id": 8757531841, "osm_type": "nodes", "name": null, "name:en": null, "name:ar": null, "amenity": "school" }, "geometry": { "type": "Point", "coordinates": [ 47.7247593, 14.0936715 ] } },
{ "type": "Feature", "properties": { "osm_id": 8761472144, "osm_type": "nodes", "name": null, "name:en": null, "name:ar": null, "amenity": "school" }, "geometry": { "type": "Point", "coordinates": [ 45.8875939, 13.7986987 ] } },
{ "type": "Feature", "properties": { "osm_id": 8764576141, "osm_type": "nodes", "name": null, "name:en": null, "name:ar": null, "amenity": "school" }, "geometry": { "type": "Point", "coordinates": [ 45.8656681, 13.6834278 ] } },
{ "type": "Feature", "properties": { "osm_id": 4298023873, "osm_type": "nodes", "name": "Hadhramout University", "name:en": null, "name:ar": null, "amenity": "college" }, "geometry": { "type": "Point", "coordinates": [ 49.0454903, 14.4849635 ] } },
{ "type": "Feature", "properties": { "osm_id": 8662368917, "osm_type": "nodes", "name": "المعهد الصحي", "name:en": null, "name:ar": null, "amenity": "college" }, "geometry": { "type": "Point", "coordinates": [ 49.0338447, 14.4695476 ] } },
{ "type": "Feature", "properties": { "osm_id": 3030005222, "osm_type": "nodes", "name": "مدرسة الثورة الثانوية", "name:en": "Althwrah School", "name:ar": null, "amenity": null }, "geometry": { "type": "Point", "coordinates": [ 45.4986291, 14.9320812 ] } },
{ "type": "Feature", "properties": { "osm_id": 9189441069, "osm_type": "nodes", "name": "مدرسة الفتح", "name:en": null, "name:ar": null, "amenity": "school" }, "geometry": { "type": "Point", "coordinates": [ 43.8048516, 16.8952125 ] } },
{ "type": "Feature", "properties": { "osm_id": 7672803872, "osm_type": "nodes", "name": "مدرسة 22 مايو", "name:en": null, "name:ar": null, "amenity": "school" }, "geometry": { "type": "Point", "coordinates": [ 44.1591245, 13.8984426 ] } },
{ "type": "Feature", "properties": { "osm_id": 4876517125, "osm_type": "nodes", "name": "مدارس النبراس النموذجية", "name:en": "al-Nebras model school", "name:ar": "مدارس النبراس النموذجية", "amenity": "school" }, "geometry": { "type": "Point", "coordinates": [ 44.1927207, 15.3020178 ] } },
{ "type": "Feature", "properties": { "osm_id": 7760594703, "osm_type": "nodes", "name": "Girl School مدرسة خولة", "name:en": null, "name:ar": null, "amenity": "school" }, "geometry": { "type": "Point", "coordinates": [ 44.1592846, 13.897673 ] } },
{ "type": "Feature", "properties": { "osm_id": 4845953423, "osm_type": "nodes", "name": "مدرسة الدريوم", "name:en": "Adderume school", "name:ar": "مدرسة الدريوم", "amenity": "school" }, "geometry": { "type": "Point", "coordinates": [ 44.089711, 14.4845273 ] } },
{ "type": "Feature", "properties": { "osm_id": 4811118426, "osm_type": "nodes", "name": "مدرسة ناصر النموذجية", "name:en": null, "name:ar": null, "amenity": "school" }, "geometry": { "type": "Point", "coordinates": [ 44.01491, 13.5747978 ] } },
{ "type": "Feature", "properties": { "osm_id": 10675647451, "osm_type": "nodes", "name": null, "name:en": null, "name:ar": null, "amenity": "school" }, "geometry": { "type": "Point", "coordinates": [ 48.8796973, 14.6653824 ] } },
{ "type": "Feature", "properties": { "osm_id": 10675647454, "osm_type": "nodes", "name": null, "name:en": null, "name:ar": null, "amenity": "school" }, "geometry": { "type": "Point", "coordinates": [ 48.8581972, 14.6802374 ] } },
{ "type": "Feature", "properties": { "osm_id": 10675647455, "osm_type": "nodes", "name": null, "name:en": null, "name:ar": null, "amenity": "school" }, "geometry": { "type": "Point", "coordinates": [ 48.6125106, 14.8125521 ] } },
{ "type": "Feature", "properties": { "osm_id": 10675647459, "osm_type": "nodes", "name": null, "name:en": null, "name:ar": null, "amenity": "school" }, "geometry": { "type": "Point", "coordinates": [ 48.6652708, 14.8192117 ] } },
{ "type": "Feature", "properties": { "osm_id": 10675647476, "osm_type": "nodes", "name": null, "name:en": null, "name:ar": null, "amenity": "school" }, "geometry": { "type": "Point", "coordinates": [ 48.6827883, 14.9237332 ] } },
{ "type": "Feature", "properties": { "osm_id": 10632742517, "osm_type": "nodes", "name": "مدرسة عبدالرحمن الغافقي", "name:en": null, "name:ar": null, "amenity": "school" }, "geometry": { "type": "Point", "coordinates": [ 44.2275869, 15.3286449 ] } },
{ "type": "Feature", "properties": { "osm_id": 10632742535, "osm_type": "nodes", "name": "مدارس رواد اليمن الدولية", "name:en": null, "name:ar": null, "amenity": "school" }, "geometry": { "type": "Point", "coordinates": [ 44.2243228, 15.3319112 ] } },
{ "type": "Feature", "properties": { "osm_id": 10632742555, "osm_type": "nodes", "name": "مدرسة أنس بن مالك", "name:en": null, "name:ar": null, "amenity": "school" }, "geometry": { "type": "Point", "coordinates": [ 44.2235272, 15.3367894 ] } },
{ "type": "Feature", "properties": { "osm_id": 10589269111, "osm_type": "nodes", "name": "مدرسة", "name:en": null, "name:ar": null, "amenity": "school" }, "geometry": { "type": "Point", "coordinates": [ 44.0130517, 15.4687283 ] } },
{ "type": "Feature", "properties": { "osm_id": 10589179493, "osm_type": "nodes", "name": "مدرسة", "name:en": null, "name:ar": null, "amenity": "school" }, "geometry": { "type": "Point", "coordinates": [ 44.0687167, 15.4473633 ] } },
{ "type": "Feature", "properties": { "osm_id": 700236904, "osm_type": "nodes", "name": "المدرسة الحديثة", "name:en": "Modern Education School", "name:ar": "المدرسة التعليمية الحديثة", "amenity": "school" }, "geometry": { "type": "Point", "coordinates": [ 44.031302, 13.569113 ] } },
{ "type": "Feature", "properties": { "osm_id": 7434458985, "osm_type": "nodes", "name": "مدرسة الرويشان", "name:en": null, "name:ar": null, "amenity": "school" }, "geometry": { "type": "Point", "coordinates": [ 44.700547, 13.8533504 ] } },
{ "type": "Feature", "properties": { "osm_id": 10687747605, "osm_type": "nodes", "name": null, "name:en": null, "name:ar": null, "amenity": "college" }, "geometry": { "type": "Point", "coordinates": [ 44.2921666, 14.0418046 ] } },
{ "type": "Feature", "properties": { "osm_id": 11367283161, "osm_type": "nodes", "name": "كلية الهندسة وعلوم الحاسوب جامعة الناصر", "name:en": null, "name:ar": null, "amenity": "college" }, "geometry": { "type": "Point", "coordinates": [ 44.199882, 15.3269662 ] } },
{ "type": "Feature", "properties": { "osm_id": 10542483727, "osm_type": "nodes", "name": "جامعة الريان", "name:en": null, "name:ar": null, "amenity": "university" }, "geometry": { "type": "Point", "coordinates": [ 49.0624378, 14.507096 ] } },
{ "type": "Feature", "properties": { "osm_id": 9063476893, "osm_type": "nodes", "name": "نموذجية السلام", "name:en": null, "name:ar": null, "amenity": "school" }, "geometry": { "type": "Point", "coordinates": [ 44.3381175, 13.3084227 ] } },
{ "type": "Feature", "properties": { "osm_id": 4727521472, "osm_type": "nodes", "name": "Female School", "name:en": null, "name:ar": null, "amenity": "school" }, "geometry": { "type": "Point", "coordinates": [ 43.2709345, 13.4464315 ] } },
{ "type": "Feature", "properties": { "osm_id": 10247843009, "osm_type": "nodes", "name": "مدرسة الطفل النجم", "name:en": "star baby school", "name:ar": null, "amenity": "school" }, "geometry": { "type": "Point", "coordinates": [ 44.1707531, 15.3737994 ] } },
{ "type": "Feature", "properties": { "osm_id": 4681741998, "osm_type": "nodes", "name": "مدرسة النسيبه الثانوية والأساسية للبنات", "name:en": null, "name:ar": "مدرسة النسيبه الثانوية والأساسية للبنات", "amenity": "school" }, "geometry": { "type": "Point", "coordinates": [ 43.355422, 15.4602329 ] } },
{ "type": "Feature", "properties": { "osm_id": 4642673495, "osm_type": "nodes", "name": "مدرسة الحمزة بعولة", "name:en": null, "name:ar": "مدرسة الحمزة بعولة", "amenity": "school" }, "geometry": { "type": "Point", "coordinates": [ 43.699822, 14.6824369 ] } },
{ "type": "Feature", "properties": { "osm_id": 4543483740, "osm_type": "nodes", "name": "روضة الوهط", "name:en": null, "name:ar": null, "amenity": "kindergarten" }, "geometry": { "type": "Point", "coordinates": [ 44.893881, 12.9760494 ] } },
{ "type": "Feature", "properties": { "osm_id": 7281498785, "osm_type": "nodes", "name": "مدرسة ابي ذر الغفاري", "name:en": null, "name:ar": null, "amenity": "school" }, "geometry": { "type": "Point", "coordinates": [ 43.8660723, 16.8372103 ] } },
{ "type": "Feature", "properties": { "osm_id": 7277051685, "osm_type": "nodes", "name": "مجمع الشيخ عبدالله سعيد بقشان", "name:en": "bugshans edu", "name:ar": null, "amenity": "school" }, "geometry": { "type": "Point", "coordinates": [ 48.3731052, 15.229168 ] } },
{ "type": "Feature", "properties": { "osm_id": 5863083189, "osm_type": "nodes", "name": "المعهد الامريكي للغات", "name:en": null, "name:ar": null, "amenity": "school" }, "geometry": { "type": "Point", "coordinates": [ 44.3970974, 14.5427362 ] } },
{ "type": "Feature", "properties": { "osm_id": 4528883789, "osm_type": "nodes", "name": "رئاسة جامعة حضرموت", "name:en": "Hadrmout University", "name:ar": "رئاسة جامعة حضرموت", "amenity": "school" }, "geometry": { "type": "Point", "coordinates": [ 49.0604103, 14.5075318 ] } },
{ "type": "Feature", "properties": { "osm_id": 7236130786, "osm_type": "nodes", "name": "مدرسة الشعب", "name:en": "alshab school", "name:ar": null, "amenity": "school" }, "geometry": { "type": "Point", "coordinates": [ 44.1853979, 13.9776417 ] } },
{ "type": "Feature", "properties": { "osm_id": 4506246758, "osm_type": "nodes", "name": "مدرسة الميثاق", "name:en": null, "name:ar": null, "amenity": "school" }, "geometry": { "type": "Point", "coordinates": [ 43.4378533, 15.9532675 ] } },
{ "type": "Feature", "properties": { "osm_id": 7170802474, "osm_type": "nodes", "name": null, "name:en": null, "name:ar": null, "amenity": "school" }, "geometry": { "type": "Point", "coordinates": [ 48.4574425, 14.4837241 ] } },
{ "type": "Feature", "properties": { "osm_id": 4463102789, "osm_type": "nodes", "name": null, "name:en": "University of Aden, Faculty of Engineering", "name:ar": null, "amenity": "school" }, "geometry": { "type": "Point", "coordinates": [ 44.9172331, 12.8480337 ] } },
{ "type": "Feature", "properties": { "osm_id": 8848836225, "osm_type": "nodes", "name": null, "name:en": null, "name:ar": null, "amenity": "school" }, "geometry": { "type": "Point", "coordinates": [ 45.3393745, 13.9983525 ] } },
{ "type": "Feature", "properties": { "osm_id": 8848836226, "osm_type": "nodes", "name": null, "name:en": null, "name:ar": null, "amenity": "school" }, "geometry": { "type": "Point", "coordinates": [ 45.3389648, 13.9983525 ] } },
{ "type": "Feature", "properties": { "osm_id": 8848836749, "osm_type": "nodes", "name": null, "name:en": null, "name:ar": null, "amenity": "school" }, "geometry": { "type": "Point", "coordinates": [ 45.3697371, 13.9803333 ] } },
{ "type": "Feature", "properties": { "osm_id": 8848837294, "osm_type": "nodes", "name": null, "name:en": null, "name:ar": null, "amenity": "school" }, "geometry": { "type": "Point", "coordinates": [ 45.2272015, 13.9325934 ] } },
{ "type": "Feature", "properties": { "osm_id": 8839098789, "osm_type": "nodes", "name": null, "name:en": null, "name:ar": null, "amenity": "school" }, "geometry": { "type": "Point", "coordinates": [ 45.2165253, 13.6924665 ] } },
{ "type": "Feature", "properties": { "osm_id": 8836344601, "osm_type": "nodes", "name": null, "name:en": null, "name:ar": null, "amenity": "school" }, "geometry": { "type": "Point", "coordinates": [ 46.0244322, 13.7009045 ] } },
{ "type": "Feature", "properties": { "osm_id": 8836344867, "osm_type": "nodes", "name": null, "name:en": null, "name:ar": null, "amenity": "school" }, "geometry": { "type": "Point", "coordinates": [ 46.0712377, 13.7064025 ] } },
{ "type": "Feature", "properties": { "osm_id": 8836344958, "osm_type": "nodes", "name": null, "name:en": null, "name:ar": null, "amenity": "school" }, "geometry": { "type": "Point", "coordinates": [ 46.0890412, 13.7144651 ] } },
{ "type": "Feature", "properties": { "osm_id": 4332970911, "osm_type": "nodes", "name": "مدرسة الشهيد الزبيري", "name:en": null, "name:ar": null, "amenity": "school" }, "geometry": { "type": "Point", "coordinates": [ 43.9462774, 15.659879 ] } },
{ "type": "Feature", "properties": { "osm_id": 12559596179, "osm_type": "nodes", "name": "المدرسة الباكستانية", "name:en": null, "name:ar": null, "amenity": "school" }, "geometry": { "type": "Point", "coordinates": [ 44.1997203, 15.3359171 ] } },
{ "type": "Feature", "properties": { "osm_id": 12559596180, "osm_type": "nodes", "name": "مدارس كيان الطفل الحديثة", "name:en": null, "name:ar": null, "amenity": "school" }, "geometry": { "type": "Point", "coordinates": [ 44.200421, 15.3356893 ] } },
{ "type": "Feature", "properties": { "osm_id": 4328874672, "osm_type": "nodes", "name": "مدرسة", "name:en": null, "name:ar": null, "amenity": "school" }, "geometry": { "type": "Point", "coordinates": [ 48.8481773, 15.5969792 ] } },
{ "type": "Feature", "properties": { "osm_id": 4644799989, "osm_type": "nodes", "name": "المدارس اليمنية الحديثة", "name:en": "Yemen modern school", "name:ar": null, "amenity": "school" }, "geometry": { "type": "Point", "coordinates": [ 44.2011845, 15.2935596 ] } },
{ "type": "Feature", "properties": { "osm_id": 6060101596, "osm_type": "nodes", "name": "مدرسة الشهيد علي عبد المغني", "name:en": "Abdulmoghni school", "name:ar": null, "amenity": "school" }, "geometry": { "type": "Point", "coordinates": [ 44.1976982, 15.3359194 ] } },
{ "type": "Feature", "properties": { "osm_id": 8399382017, "osm_type": "nodes", "name": "مدرسة عمر بن الخطاب", "name:en": null, "name:ar": null, "amenity": "school" }, "geometry": { "type": "Point", "coordinates": [ 44.1802414, 15.3949148 ] } },
{ "type": "Feature", "properties": { "osm_id": 4298024729, "osm_type": "nodes", "name": "Rehabilitation Of Working Children Center", "name:en": null, "name:ar": null, "amenity": "school" }, "geometry": { "type": "Point", "coordinates": [ 48.796892, 15.944252 ] } },
{ "type": "Feature", "properties": { "osm_id": 4327698359, "osm_type": "nodes", "name": "ثانوية الصبّان", "name:en": null, "name:ar": null, "amenity": "school" }, "geometry": { "type": "Point", "coordinates": [ 48.7985538, 15.9390942 ] } },
{ "type": "Feature", "properties": { "osm_id": 4327699047, "osm_type": "nodes", "name": "مدرسة الخليفة عمر بن الخطاب للبنات", "name:en": null, "name:ar": null, "amenity": "school" }, "geometry": { "type": "Point", "coordinates": [ 48.789336, 15.932519 ] } },
{ "type": "Feature", "properties": { "osm_id": 4326873994, "osm_type": "nodes", "name": "مدرسة الفقيد بن حمدة", "name:en": null, "name:ar": null, "amenity": "school" }, "geometry": { "type": "Point", "coordinates": [ 48.4583875, 15.8404938 ] } },
{ "type": "Feature", "properties": { "osm_id": 4323329017, "osm_type": "nodes", "name": "مدرسة عمر المختار", "name:en": null, "name:ar": null, "amenity": "school" }, "geometry": { "type": "Point", "coordinates": [ 44.988813, 12.8744194 ] } },
{ "type": "Feature", "properties": { "osm_id": 4298021894, "osm_type": "nodes", "name": "مدارس الامجاد", "name:en": null, "name:ar": null, "amenity": "school" }, "geometry": { "type": "Point", "coordinates": [ 49.055071, 14.497533 ] } },
{ "type": "Feature", "properties": { "osm_id": 4328798393, "osm_type": "nodes", "name": "مدرسة الحد", "name:en": null, "name:ar": null, "amenity": "school" }, "geometry": { "type": "Point", "coordinates": [ 49.022571, 16.0610548 ] } },
{ "type": "Feature", "properties": { "osm_id": 4327604505, "osm_type": "nodes", "name": "روضة الطفل بسيئون", "name:en": null, "name:ar": null, "amenity": "school" }, "geometry": { "type": "Point", "coordinates": [ 48.7889118, 15.9428421 ] } },
{ "type": "Feature", "properties": { "osm_id": 4298022634, "osm_type": "nodes", "name": "مدرسه الشهداء", "name:en": null, "name:ar": null, "amenity": "school" }, "geometry": { "type": "Point", "coordinates": [ 48.332505, 15.310736 ] } },
{ "type": "Feature", "properties": { "osm_id": 4324725968, "osm_type": "nodes", "name": "ثانوية النعمان", "name:en": null, "name:ar": null, "amenity": "school" }, "geometry": { "type": "Point", "coordinates": [ 44.9760939, 12.8647457 ] } },
{ "type": "Feature", "properties": { "osm_id": 4320694713, "osm_type": "nodes", "name": "مدارس حضرموت العالمية", "name:en": null, "name:ar": null, "amenity": "school" }, "geometry": { "type": "Point", "coordinates": [ 49.08586, 14.5211535 ] } },
{ "type": "Feature", "properties": { "osm_id": 4320694714, "osm_type": "nodes", "name": "مدارس المعارف الحديثة", "name:en": null, "name:ar": null, "amenity": "school" }, "geometry": { "type": "Point", "coordinates": [ 49.0780565, 14.5219544 ] } },
{ "type": "Feature", "properties": { "osm_id": 4298021120, "osm_type": "nodes", "name": "مدارس الاحفاد", "name:en": null, "name:ar": null, "amenity": "school" }, "geometry": { "type": "Point", "coordinates": [ 49.132791, 14.552851 ] } },
{ "type": "Feature", "properties": { "osm_id": 4298022225, "osm_type": "nodes", "name": "مدارس النور", "name:en": null, "name:ar": null, "amenity": "school" }, "geometry": { "type": "Point", "coordinates": [ 49.135923, 14.553924 ] } },
{ "type": "Feature", "properties": { "osm_id": 12561034804, "osm_type": "nodes", "name": "مدارس المعارف الحديثة", "name:en": null, "name:ar": null, "amenity": "school" }, "geometry": { "type": "Point", "coordinates": [ 44.1708283, 15.3933904 ] } },
{ "type": "Feature", "properties": { "osm_id": 4549686089, "osm_type": "nodes", "name": "مدرسة اليمان الدولية", "name:en": null, "name:ar": null, "amenity": "school" }, "geometry": { "type": "Point", "coordinates": [ 44.1954689, 15.3048787 ] } },
{ "type": "Feature", "properties": { "osm_id": 8038031914, "osm_type": "nodes", "name": "مدارس شمس العلوم الحديثة", "name:en": "Shams ALaloom Modern Schools", "name:ar": null, "amenity": "school" }, "geometry": { "type": "Point", "coordinates": [ 44.1980885, 15.3526515 ] } },
{ "type": "Feature", "properties": { "osm_id": 12563189859, "osm_type": "nodes", "name": "مدارس تمكين الدولية", "name:en": null, "name:ar": null, "amenity": "school" }, "geometry": { "type": "Point", "coordinates": [ 44.1700443, 15.3586565 ] } },
{ "type": "Feature", "properties": { "osm_id": 4695992015, "osm_type": "nodes", "name": "مدرسة الثورة الابتدائية", "name:en": "Athaura Primary School", "name:ar": "مدرسة الثورة الابتدائية", "amenity": "school" }, "geometry": { "type": "Point", "coordinates": [ 43.5229886, 12.68724 ] } },
{ "type": "Feature", "properties": { "osm_id": 4298022646, "osm_type": "nodes", "name": "Alslal School", "name:en": null, "name:ar": "مدرسة السلال", "amenity": "school" }, "geometry": { "type": "Point", "coordinates": [ 49.0454235, 14.4883139 ] } },
{ "type": "Feature", "properties": { "osm_id": 8184132217, "osm_type": "nodes", "name": "مدرسة عمار بن ياسر", "name:en": null, "name:ar": null, "amenity": "school" }, "geometry": { "type": "Point", "coordinates": [ 44.2295759, 15.3600943 ] } },
{ "type": "Feature", "properties": { "osm_id": 12572220946, "osm_type": "nodes", "name": "مدرسة سماء النهضة الأهلية", "name:en": null, "name:ar": null, "amenity": "school" }, "geometry": { "type": "Point", "coordinates": [ 44.1984086, 15.397954 ] } },
{ "type": "Feature", "properties": { "osm_id": 4761656821, "osm_type": "nodes", "name": "الجامعة البريطانية", "name:en": null, "name:ar": null, "amenity": "school" }, "geometry": { "type": "Point", "coordinates": [ 44.2100786, 15.2834056 ] } },
{ "type": "Feature", "properties": { "osm_id": 7184994685, "osm_type": "nodes", "name": "الاتقان الأهلية", "name:en": null, "name:ar": null, "amenity": "school" }, "geometry": { "type": "Point", "coordinates": [ 44.2066434, 15.3882967 ] } },
{ "type": "Feature", "properties": { "osm_id": 12056891747, "osm_type": "nodes", "name": "مدارس البناء التربوي", "name:en": null, "name:ar": null, "amenity": "school" }, "geometry": { "type": "Point", "coordinates": [ 44.2457656, 15.3724119 ] } },
{ "type": "Feature", "properties": { "osm_id": 12056913076, "osm_type": "nodes", "name": "مدارس الرائد النموذجية", "name:en": null, "name:ar": null, "amenity": "school" }, "geometry": { "type": "Point", "coordinates": [ 44.2443866, 15.3696215 ] } },
{ "type": "Feature", "properties": { "osm_id": 12573635355, "osm_type": "nodes", "name": "مدرسة اللأطفال النموذجية", "name:en": null, "name:ar": null, "amenity": "school" }, "geometry": { "type": "Point", "coordinates": [ 44.2092329, 15.3500327 ] } },
{ "type": "Feature", "properties": { "osm_id": 10177184339, "osm_type": "nodes", "name": "مدرسة ربى العلوم", "name:en": null, "name:ar": null, "amenity": "school" }, "geometry": { "type": "Point", "coordinates": [ 44.1678251, 15.34665 ] } },
{ "type": "Feature", "properties": { "osm_id": 4298024874, "osm_type": "nodes", "name": "معهد سيئون العالي", "name:en": null, "name:ar": null, "amenity": "college" }, "geometry": { "type": "Point", "coordinates": [ 48.77728, 15.948501 ] } },
{ "type": "Feature", "properties": { "osm_id": 4298023801, "osm_type": "nodes", "name": "كلية الاتصالات العامه", "name:en": null, "name:ar": null, "amenity": "college" }, "geometry": { "type": "Point", "coordinates": [ 48.479276, 15.83941 ] } },
{ "type": "Feature", "properties": { "osm_id": 4328693562, "osm_type": "nodes", "name": "معهد التفوق", "name:en": null, "name:ar": null, "amenity": "college" }, "geometry": { "type": "Point", "coordinates": [ 49.005259, 16.0515486 ] } },
{ "type": "Feature", "properties": { "osm_id": 4298024265, "osm_type": "nodes", "name": "كليه الاقتصاد وإداره اعمال", "name:en": null, "name:ar": null, "amenity": "college" }, "geometry": { "type": "Point", "coordinates": [ 49.044074, 14.4867319 ] } },
{ "type": "Feature", "properties": { "osm_id": 12403304125, "osm_type": "nodes", "name": "معهد عالمية أنجل للعلوم الصحية", "name:en": null, "name:ar": null, "amenity": "college" }, "geometry": { "type": "Point", "coordinates": [ 44.2450861, 15.3706545 ] } },
{ "type": "Feature", "properties": { "osm_id": 12566334600, "osm_type": "nodes", "name": "Ahgaff University", "name:en": null, "name:ar": "جامعة الاحقاف", "amenity": "university" }, "geometry": { "type": "Point", "coordinates": [ 49.0432521, 14.4873957 ] } },
{ "type": "Feature", "properties": { "osm_id": 12566334587, "osm_type": "nodes", "name": "Ahgff - Girls Faculity", "name:en": null, "name:ar": "الاجقاف - كلية البنات", "amenity": "university" }, "geometry": { "type": "Point", "coordinates": [ 49.0422926, 14.4872414 ] } },
{ "type": "Feature", "properties": { "osm_id": 12279251582, "osm_type": "nodes", "name": "جامعة الرشيد الذكية", "name:en": null, "name:ar": null, "amenity": "university" }, "geometry": { "type": "Point", "coordinates": [ 44.1999437, 15.2955319 ] } },
{ "type": "Feature", "properties": { "osm_id": 4690487998, "osm_type": "nodes", "name": "مدارس الدرب الأهلية", "name:en": "Al-Darb school", "name:ar": "مدارس الدرب الأهلية", "amenity": "school" }, "geometry": { "type": "Point", "coordinates": [ 44.1982725, 15.3030027 ] } },
{ "type": "Feature", "properties": { "osm_id": 4690536891, "osm_type": "nodes", "name": "مدرسة جنة المواهب", "name:en": null, "name:ar": "مدرسة جنة المواهب", "amenity": "school" }, "geometry": { "type": "Point", "coordinates": [ 44.1979013, 15.3020791 ] } },
{ "type": "Feature", "properties": { "osm_id": 12420501372, "osm_type": "nodes", "name": "مدارس أم القرى", "name:en": null, "name:ar": null, "amenity": "school" }, "geometry": { "type": "Point", "coordinates": [ 44.2197743, 15.2810802 ] } },
{ "type": "Feature", "properties": { "osm_id": 12583232932, "osm_type": "nodes", "name": "مدرسة الناصر للبنين", "name:en": null, "name:ar": null, "amenity": "school" }, "geometry": { "type": "Point", "coordinates": [ 44.2208516, 15.2787317 ] } },
{ "type": "Feature", "properties": { "osm_id": 5141016666, "osm_type": "nodes", "name": "مدارس واحة اليمن", "name:en": "Oasis Yemen School", "name:ar": null, "amenity": "school" }, "geometry": { "type": "Point", "coordinates": [ 44.1981335, 15.2889234 ] } },
{ "type": "Feature", "properties": { "osm_id": 6479016952, "osm_type": "nodes", "name": "مدرسة المستقبل الدولية", "name:en": null, "name:ar": null, "amenity": "school" }, "geometry": { "type": "Point", "coordinates": [ 44.1975483, 15.328489 ] } },
{ "type": "Feature", "properties": { "osm_id": 12407562085, "osm_type": "nodes", "name": "مدرسة صنعاء البريطانية", "name:en": null, "name:ar": null, "amenity": "school" }, "geometry": { "type": "Point", "coordinates": [ 44.1754749, 15.337628 ] } },
{ "type": "Feature", "properties": { "osm_id": 12584732511, "osm_type": "nodes", "name": "مدارس أعلام سبأ الأهلية", "name:en": null, "name:ar": null, "amenity": "school" }, "geometry": { "type": "Point", "coordinates": [ 44.170894, 15.3377619 ] } },
{ "type": "Feature", "properties": { "osm_id": 12584732516, "osm_type": "nodes", "name": "مدارس العالمية الحديثة - فرع الإنجليزي", "name:en": null, "name:ar": null, "amenity": "school" }, "geometry": { "type": "Point", "coordinates": [ 44.172931, 15.3379383 ] } },
{ "type": "Feature", "properties": { "osm_id": 12584732528, "osm_type": "nodes", "name": "مدارس صروح التربية الحديثة", "name:en": null, "name:ar": null, "amenity": "school" }, "geometry": { "type": "Point", "coordinates": [ 44.1946276, 15.3298544 ] } },
{ "type": "Feature", "properties": { "osm_id": 10155337617, "osm_type": "nodes", "name": null, "name:en": null, "name:ar": null, "amenity": "school" }, "geometry": { "type": "Point", "coordinates": [ 44.0027719, 13.5615681 ] } },
{ "type": "Feature", "properties": { "osm_id": 10160025045, "osm_type": "nodes", "name": "مدارس قحطان الأهلية الفرع", "name:en": null, "name:ar": null, "amenity": "school" }, "geometry": { "type": "Point", "coordinates": [ 44.2002154, 15.3872621 ] } },
{ "type": "Feature", "properties": { "osm_id": 10154797428, "osm_type": "nodes", "name": "مدرسة المثنى بن حارثة", "name:en": null, "name:ar": null, "amenity": "school" }, "geometry": { "type": "Point", "coordinates": [ 43.7805176, 13.4550728 ] } },
{ "type": "Feature", "properties": { "osm_id": 6560928486, "osm_type": "nodes", "name": "مدارس العلوم والتقنية", "name:en": "Sciences and Technology School", "name:ar": null, "amenity": "school" }, "geometry": { "type": "Point", "coordinates": [ 44.2058236, 15.3404289 ] } },
{ "type": "Feature", "properties": { "osm_id": 3256253232, "osm_type": "nodes", "name": "مدرسة بلقيس", "name:en": null, "name:ar": null, "amenity": "school" }, "geometry": { "type": "Point", "coordinates": [ 44.1964422, 15.3559803 ] } },
{ "type": "Feature", "properties": { "osm_id": 4298021968, "osm_type": "nodes", "name": "مدارس الإقبال الأهلية الحديثة", "name:en": null, "name:ar": null, "amenity": "school" }, "geometry": { "type": "Point", "coordinates": [ 44.1915392, 15.3304194 ] } },
{ "type": "Feature", "properties": { "osm_id": 12587743573, "osm_type": "nodes", "name": "مدارس أبجد 2", "name:en": null, "name:ar": null, "amenity": "school" }, "geometry": { "type": "Point", "coordinates": [ 44.19066, 15.3283827 ] } },
{ "type": "Feature", "properties": { "osm_id": 12587743581, "osm_type": "nodes", "name": "مدارس سفير الحديثة", "name:en": null, "name:ar": null, "amenity": "school" }, "geometry": { "type": "Point", "coordinates": [ 44.1875607, 15.3598471 ] } },
{ "type": "Feature", "properties": { "osm_id": 8767983232, "osm_type": "nodes", "name": null, "name:en": null, "name:ar": null, "amenity": "school" }, "geometry": { "type": "Point", "coordinates": [ 45.7661834, 13.8408145 ] } },
{ "type": "Feature", "properties": { "osm_id": 8765173507, "osm_type": "nodes", "name": null, "name:en": null, "name:ar": null, "amenity": "school" }, "geometry": { "type": "Point", "coordinates": [ 45.8223268, 13.8907591 ] } },
{ "type": "Feature", "properties": { "osm_id": 8764828085, "osm_type": "nodes", "name": null, "name:en": null, "name:ar": null, "amenity": "school" }, "geometry": { "type": "Point", "coordinates": [ 47.0848167, 14.2201038 ] } },
{ "type": "Feature", "properties": { "osm_id": 8764832204, "osm_type": "nodes", "name": null, "name:en": null, "name:ar": null, "amenity": "school" }, "geometry": { "type": "Point", "coordinates": [ 46.9103351, 14.0586948 ] } },
{ "type": "Feature", "properties": { "osm_id": 8764832225, "osm_type": "nodes", "name": null, "name:en": null, "name:ar": null, "amenity": "school" }, "geometry": { "type": "Point", "coordinates": [ 46.8461269, 14.053813 ] } },
{ "type": "Feature", "properties": { "osm_id": 8764832310, "osm_type": "nodes", "name": null, "name:en": null, "name:ar": null, "amenity": "school" }, "geometry": { "type": "Point", "coordinates": [ 46.6436757, 14.0079254 ] } },
{ "type": "Feature", "properties": { "osm_id": 8764832323, "osm_type": "nodes", "name": null, "name:en": null, "name:ar": null, "amenity": "school" }, "geometry": { "type": "Point", "coordinates": [ 46.5368199, 13.9728112 ] } },
{ "type": "Feature", "properties": { "osm_id": 12587743571, "osm_type": "nodes", "name": "مدرسة المؤتمن", "name:en": null, "name:ar": null, "amenity": "school" }, "geometry": { "type": "Point", "coordinates": [ 44.1912967, 15.330026 ] } },
{ "type": "Feature", "properties": { "osm_id": 5079935324, "osm_type": "nodes", "name": "مدرسة الثورة للبنات", "name:en": "AlThowrah Girls School", "name:ar": "مدرسة الثورة للبنات", "amenity": "school" }, "geometry": { "type": "Point", "coordinates": [ 44.2234547, 15.3504799 ] } },
{ "type": "Feature", "properties": { "osm_id": 8764820543, "osm_type": "nodes", "name": null, "name:en": null, "name:ar": null, "amenity": "school" }, "geometry": { "type": "Point", "coordinates": [ 47.0407458, 14.3269926 ] } },
{ "type": "Feature", "properties": { "osm_id": 8764760408, "osm_type": "nodes", "name": null, "name:en": null, "name:ar": null, "amenity": "school" }, "geometry": { "type": "Point", "coordinates": [ 46.2045962, 13.9395548 ] } },
{ "type": "Feature", "properties": { "osm_id": 8761472142, "osm_type": "nodes", "name": null, "name:en": null, "name:ar": null, "amenity": "school" }, "geometry": { "type": "Point", "coordinates": [ 45.8937113, 13.7974423 ] } },
{ "type": "Feature", "properties": { "osm_id": 8760703107, "osm_type": "nodes", "name": null, "name:en": null, "name:ar": null, "amenity": "school" }, "geometry": { "type": "Point", "coordinates": [ 46.2868384, 14.1722006 ] } },
{ "type": "Feature", "properties": { "osm_id": 8760482945, "osm_type": "nodes", "name": null, "name:en": null, "name:ar": null, "amenity": "school" }, "geometry": { "type": "Point", "coordinates": [ 46.5334296, 13.5121315 ] } },
{ "type": "Feature", "properties": { "osm_id": 8757531848, "osm_type": "nodes", "name": "مدرسة رضوم", "name:en": null, "name:ar": null, "amenity": "school" }, "geometry": { "type": "Point", "coordinates": [ 47.7302938, 14.0908613 ] } },
{ "type": "Feature", "properties": { "osm_id": 8764760336, "osm_type": "nodes", "name": null, "name:en": null, "name:ar": null, "amenity": "school" }, "geometry": { "type": "Point", "coordinates": [ 46.3509482, 13.9519562 ] } },
{ "type": "Feature", "properties": { "osm_id": 8760482979, "osm_type": "nodes", "name": null, "name:en": null, "name:ar": null, "amenity": "school" }, "geometry": { "type": "Point", "coordinates": [ 46.7078483, 13.5426428 ] } },
{ "type": "Feature", "properties": { "osm_id": 8759761328, "osm_type": "nodes", "name": null, "name:en": null, "name:ar": null, "amenity": "school" }, "geometry": { "type": "Point", "coordinates": [ 46.6292729, 14.1471831 ] } },
{ "type": "Feature", "properties": { "osm_id": 6937224258, "osm_type": "nodes", "name": "مدرسة ابن خلدون", "name:en": "Madrasat Ibn Khaldun", "name:ar": "مدرسة ابن خلدون", "amenity": "school" }, "geometry": { "type": "Point", "coordinates": [ 49.137047, 14.526905 ] } },
{ "type": "Feature", "properties": { "osm_id": 8370868718, "osm_type": "nodes", "name": "كلية التربية سقطرى", "name:en": null, "name:ar": null, "amenity": "college" }, "geometry": { "type": "Point", "coordinates": [ 54.0108287, 12.6489762 ] } },
{ "type": "Feature", "properties": { "osm_id": 8370870617, "osm_type": "nodes", "name": "كلية المجتمع سقطرى", "name:en": null, "name:ar": null, "amenity": "college" }, "geometry": { "type": "Point", "coordinates": [ 54.0131072, 12.6496037 ] } },
{ "type": "Feature", "properties": { "osm_id": 4298023657, "osm_type": "nodes", "name": "Community College", "name:en": null, "name:ar": null, "amenity": "college" }, "geometry": { "type": "Point", "coordinates": [ 43.9831427, 13.585497 ] } },
{ "type": "Feature", "properties": { "osm_id": 12587743576, "osm_type": "nodes", "name": "الأكاديمية اليمنية للدراسات العليا", "name:en": null, "name:ar": null, "amenity": "university" }, "geometry": { "type": "Point", "coordinates": [ 44.2072957, 15.3407212 ] } },
{ "type": "Feature", "properties": { "osm_id": 8733527948, "osm_type": "nodes", "name": null, "name:en": null, "name:ar": null, "amenity": "school" }, "geometry": { "type": "Point", "coordinates": [ 49.394947, 14.68607 ] } },
{ "type": "Feature", "properties": { "osm_id": 8733528002, "osm_type": "nodes", "name": null, "name:en": null, "name:ar": null, "amenity": "school" }, "geometry": { "type": "Point", "coordinates": [ 49.4147766, 14.80816 ] } },
{ "type": "Feature", "properties": { "osm_id": 10134869016, "osm_type": "nodes", "name": "ثانوية الفقيد علي أسعد المصري", "name:en": null, "name:ar": null, "amenity": "school" }, "geometry": { "type": "Point", "coordinates": [ 44.8186284, 13.8566405 ] } },
{ "type": "Feature", "properties": { "osm_id": 10132812017, "osm_type": "nodes", "name": "مدرسة طيبة", "name:en": null, "name:ar": null, "amenity": "school" }, "geometry": { "type": "Point", "coordinates": [ 44.0165173, 13.5851091 ] } },
{ "type": "Feature", "properties": { "osm_id": 5600329621, "osm_type": "nodes", "name": "مدرسة شملان", "name:en": "Shamlan school", "name:ar": "مدرسه شملان", "amenity": "school" }, "geometry": { "type": "Point", "coordinates": [ 44.1538485, 15.409742 ] } },
{ "type": "Feature", "properties": { "osm_id": 4733665323, "osm_type": "nodes", "name": "مدرسة الشهيد الكبسي", "name:en": null, "name:ar": null, "amenity": "school" }, "geometry": { "type": "Point", "coordinates": [ 44.2132404, 15.4040302 ] } },
{ "type": "Feature", "properties": { "osm_id": 5773917033, "osm_type": "nodes", "name": "مدرسة الشوكاني", "name:en": null, "name:ar": "مدرسة الشوكاني", "amenity": "school" }, "geometry": { "type": "Point", "coordinates": [ 44.2240182, 15.3017912 ] } },
{ "type": "Feature", "properties": { "osm_id": 12593383592, "osm_type": "nodes", "name": "مدرسة الإحسان للبنات", "name:en": null, "name:ar": null, "amenity": "school" }, "geometry": { "type": "Point", "coordinates": [ 44.2248639, 15.3012152 ] } },
{ "type": "Feature", "properties": { "osm_id": 6345346696, "osm_type": "nodes", "name": "جامعة آزال للتنمية البشرية", "name:en": "Azal university for human development", "name:ar": null, "amenity": "university" }, "geometry": { "type": "Point", "coordinates": [ 44.1747563, 15.3569712 ] } },
{ "type": "Feature", "properties": { "osm_id": 5707828521, "osm_type": "nodes", "name": "مدرسة الإشعاع العلمي", "name:en": null, "name:ar": "مدرسة الإشعاع العلمي", "amenity": "school" }, "geometry": { "type": "Point", "coordinates": [ 44.3467135, 13.2992057 ] } },
{ "type": "Feature", "properties": { "osm_id": 9706384266, "osm_type": "nodes", "name": "مدرسة الإمام الشوكاني", "name:en": null, "name:ar": null, "amenity": "school" }, "geometry": { "type": "Point", "coordinates": [ 44.1059093, 13.7470402 ] } },
{ "type": "Feature", "properties": { "osm_id": 12593610428, "osm_type": "nodes", "name": "مدرسة الهدى الابتدائية", "name:en": null, "name:ar": null, "amenity": "school" }, "geometry": { "type": "Point", "coordinates": [ 44.0435026, 14.1327398 ] } },
{ "type": "Feature", "properties": { "osm_id": 8657341119, "osm_type": "nodes", "name": "مدرسة شعبو المضاربة", "name:en": null, "name:ar": null, "amenity": "school" }, "geometry": { "type": "Point", "coordinates": [ 43.9088747, 12.9857527 ] } },
{ "type": "Feature", "properties": { "osm_id": 8164414717, "osm_type": "nodes", "name": "مدارس الرشيد", "name:en": null, "name:ar": null, "amenity": "school" }, "geometry": { "type": "Point", "coordinates": [ 44.1897994, 15.367248 ] } },
{ "type": "Feature", "properties": { "osm_id": 12599361319, "osm_type": "nodes", "name": "مدرسة المسيلة النموذجية", "name:en": null, "name:ar": null, "amenity": "school" }, "geometry": { "type": "Point", "coordinates": [ 44.2040065, 15.4018043 ] } },
{ "type": "Feature", "properties": { "osm_id": 12599361320, "osm_type": "nodes", "name": "مدرسة إقراء الأهلية", "name:en": null, "name:ar": null, "amenity": "school" }, "geometry": { "type": "Point", "coordinates": [ 44.2031778, 15.4019704 ] } },
{ "type": "Feature", "properties": { "osm_id": 8513861521, "osm_type": "nodes", "name": "مدرسة النهضة", "name:en": "Al Nahda School in Barar", "name:ar": null, "amenity": "school" }, "geometry": { "type": "Point", "coordinates": [ 43.9903317, 15.8198221 ] } },
{ "type": "Feature", "properties": { "osm_id": 5204761122, "osm_type": "nodes", "name": "مركز المبدعون للهندسة", "name:en": "mc4eng", "name:ar": "مركز المبدعون للهندسة", "amenity": "college" }, "geometry": { "type": "Point", "coordinates": [ 44.241302, 15.3034311 ] } },
{ "type": "Feature", "properties": { "osm_id": 5878121447, "osm_type": "nodes", "name": "الجامعة العربية للعلوم التقنية", "name:en": "Arabic Univercity for Technical Science", "name:ar": null, "amenity": "university" }, "geometry": { "type": "Point", "coordinates": [ 44.18674, 15.3260568 ] } },
{ "type": "Feature", "properties": { "osm_id": 12597749236, "osm_type": "nodes", "name": "جامعة 21 سبتمبر للعلوم الطبية والتطبيقية", "name:en": null, "name:ar": null, "amenity": "university" }, "geometry": { "type": "Point", "coordinates": [ 44.2369203, 15.2761422 ] } },
{ "type": "Feature", "properties": { "osm_id": 12600862036, "osm_type": "nodes", "name": "مدرسة النزيلي الأهلية", "name:en": null, "name:ar": null, "amenity": "school" }, "geometry": { "type": "Point", "coordinates": [ 44.2094932, 15.3344516 ] } },
{ "type": "Feature", "properties": { "osm_id": 12299737947, "osm_type": "nodes", "name": "مدرسة الجامعة", "name:en": null, "name:ar": null, "amenity": "school" }, "geometry": { "type": "Point", "coordinates": [ 44.2363674, 15.2928929 ] } },
{ "type": "Feature", "properties": { "osm_id": 12299826395, "osm_type": "nodes", "name": "مدرسة نسيبة بنت كعب للبنات", "name:en": null, "name:ar": null, "amenity": "school" }, "geometry": { "type": "Point", "coordinates": [ 44.1836861, 15.3597158 ] } },
{ "type": "Feature", "properties": { "osm_id": 8589849026, "osm_type": "nodes", "name": "الجيل الجديد", "name:en": null, "name:ar": null, "amenity": "school" }, "geometry": { "type": "Point", "coordinates": [ 43.4415939, 13.498134 ] } },
{ "type": "Feature", "properties": { "osm_id": 8589849030, "osm_type": "nodes", "name": "السبيعة", "name:en": null, "name:ar": null, "amenity": "school" }, "geometry": { "type": "Point", "coordinates": [ 43.2746367, 13.8111024 ] } },
{ "type": "Feature", "properties": { "osm_id": 8589849125, "osm_type": "nodes", "name": "الشاذلية", "name:en": null, "name:ar": null, "amenity": "school" }, "geometry": { "type": "Point", "coordinates": [ 43.3940017, 13.5261171 ] } },
{ "type": "Feature", "properties": { "osm_id": 4336478427, "osm_type": "nodes", "name": "معهد باشريف لتعليم اللغة الانجليزيه", "name:en": null, "name:ar": null, "amenity": "college" }, "geometry": { "type": "Point", "coordinates": [ 49.141801, 14.5284448 ] } },
{ "type": "Feature", "properties": { "osm_id": 3804211975, "osm_type": "nodes", "name": "مدرسة المطرح- بني إسحاق", "name:en": null, "name:ar": null, "amenity": null }, "geometry": { "type": "Point", "coordinates": [ 43.6047922, 15.0558057 ] } },
{ "type": "Feature", "properties": { "osm_id": 3798776270, "osm_type": "nodes", "name": "مدرسة المحبوب - أغابرة", "name:en": null, "name:ar": null, "amenity": null }, "geometry": { "type": "Point", "coordinates": [ 44.2731113, 13.2915181 ] } },
{ "type": "Feature", "properties": { "osm_id": 8589856517, "osm_type": "nodes", "name": "الزهراء", "name:en": null, "name:ar": null, "amenity": "school" }, "geometry": { "type": "Point", "coordinates": [ 43.2533776, 13.3155206 ] } },
{ "type": "Feature", "properties": { "osm_id": 8589856519, "osm_type": "nodes", "name": "صلاح الدين", "name:en": null, "name:ar": null, "amenity": "school" }, "geometry": { "type": "Point", "coordinates": [ 43.4392275, 13.4966556 ] } },
{ "type": "Feature", "properties": { "osm_id": 11274584683, "osm_type": "nodes", "name": "المدارس اليمنية الحديثة فرع الثانوية (بنين)", "name:en": null, "name:ar": null, "amenity": "school" }, "geometry": { "type": "Point", "coordinates": [ 44.18997, 15.3097909 ] } },
{ "type": "Feature", "properties": { "osm_id": 8527513699, "osm_type": "nodes", "name": null, "name:en": null, "name:ar": null, "amenity": "school" }, "geometry": { "type": "Point", "coordinates": [ 48.9846897, 15.8052509 ] } },
{ "type": "Feature", "properties": { "osm_id": 8510274517, "osm_type": "nodes", "name": "المرابيع", "name:en": null, "name:ar": null, "amenity": "school" }, "geometry": { "type": "Point", "coordinates": [ 43.1513743, 15.8115776 ] } },
{ "type": "Feature", "properties": { "osm_id": 6184722685, "osm_type": "nodes", "name": "مدرسة ثانوية", "name:en": null, "name:ar": null, "amenity": "school" }, "geometry": { "type": "Point", "coordinates": [ 48.3313623, 15.3235851 ] } },
{ "type": "Feature", "properties": { "osm_id": 8538601458, "osm_type": "nodes", "name": "ثانوية عمد", "name:en": null, "name:ar": null, "amenity": "school" }, "geometry": { "type": "Point", "coordinates": [ 47.9668933, 15.2913985 ] } },
{ "type": "Feature", "properties": { "osm_id": 8484069924, "osm_type": "nodes", "name": "مدرسة الزهراء", "name:en": null, "name:ar": null, "amenity": "school" }, "geometry": { "type": "Point", "coordinates": [ 45.4860072, 14.9793685 ] } },
{ "type": "Feature", "properties": { "osm_id": 4218761590, "osm_type": "nodes", "name": "ثانوية مأرب", "name:en": "Maareb high school", "name:ar": null, "amenity": "school" }, "geometry": { "type": "Point", "coordinates": [ 45.0060921, 12.7871702 ] } },
{ "type": "Feature", "properties": { "osm_id": 8484109350, "osm_type": "nodes", "name": "مدرسة جعدر", "name:en": null, "name:ar": null, "amenity": "school" }, "geometry": { "type": "Point", "coordinates": [ 45.5446447, 14.999621 ] } },
{ "type": "Feature", "properties": { "osm_id": 12609716829, "osm_type": "nodes", "name": "مدارس طيبة التربوية", "name:en": null, "name:ar": null, "amenity": "school" }, "geometry": { "type": "Point", "coordinates": [ 44.1709121, 15.3581287 ] } },
{ "type": "Feature", "properties": { "osm_id": 4182489490, "osm_type": "nodes", "name": "مدرسة الوفاق", "name:en": null, "name:ar": "مدرسه", "amenity": "school" }, "geometry": { "type": "Point", "coordinates": [ 44.1653141, 15.3452262 ] } },
{ "type": "Feature", "properties": { "osm_id": 4343436237, "osm_type": "nodes", "name": "مدرسة إقبال", "name:en": null, "name:ar": null, "amenity": "school" }, "geometry": { "type": "Point", "coordinates": [ 44.8892591, 12.9745649 ] } },
{ "type": "Feature", "properties": { "osm_id": 4298023335, "osm_type": "nodes", "name": "مدرسة بازرعة", "name:en": null, "name:ar": null, "amenity": "school" }, "geometry": { "type": "Point", "coordinates": [ 45.038195, 12.774267 ] } },
{ "type": "Feature", "properties": { "osm_id": 9106013417, "osm_type": "nodes", "name": "مدارس الوطنية الحديثة - فرع البنات", "name:en": null, "name:ar": null, "amenity": "school" }, "geometry": { "type": "Point", "coordinates": [ 44.2195931, 15.3406759 ] } },
{ "type": "Feature", "properties": { "osm_id": 7830809885, "osm_type": "nodes", "name": "مدرسة ردفان الإبتدائية", "name:en": null, "name:ar": null, "amenity": "school" }, "geometry": { "type": "Point", "coordinates": [ 44.9959873, 12.8727647 ] } },
{ "type": "Feature", "properties": { "osm_id": 4298024815, "osm_type": "nodes", "name": "مدرسة سيف بن ذي يزن", "name:en": null, "name:ar": "مدرسه سيف بن ذي يزن", "amenity": "school" }, "geometry": { "type": "Point", "coordinates": [ 45.027809, 12.78388 ] } },
{ "type": "Feature", "properties": { "osm_id": 4298022993, "osm_type": "nodes", "name": "مدرسة الزبيري", "name:en": null, "name:ar": null, "amenity": "school" }, "geometry": { "type": "Point", "coordinates": [ 48.7862262, 15.9468416 ] } },
{ "type": "Feature", "properties": { "osm_id": 12612207911, "osm_type": "nodes", "name": "مدرسة الرملة", "name:en": null, "name:ar": null, "amenity": "school" }, "geometry": { "type": "Point", "coordinates": [ 48.2767399, 15.82531 ] } },
{ "type": "Feature", "properties": { "osm_id": 4218761589, "osm_type": "nodes", "name": "مدرسة قتبان الابتدائية", "name:en": "Qataban Primary School", "name:ar": "مدرسة قتبان الابتدائية - المعلا", "amenity": "school" }, "geometry": { "type": "Point", "coordinates": [ 45.0135282, 12.7922686 ] } },
{ "type": "Feature", "properties": { "osm_id": 12612125889, "osm_type": "nodes", "name": "مدرسة سبأ", "name:en": null, "name:ar": null, "amenity": "school" }, "geometry": { "type": "Point", "coordinates": [ 44.07045, 16.27981 ] } },
{ "type": "Feature", "properties": { "osm_id": 4533842289, "osm_type": "nodes", "name": "معهد YES للغات والتدريب", "name:en": "The Yemeni International Institute", "name:ar": "المعهد الدولي اليمني", "amenity": "school" }, "geometry": { "type": "Point", "coordinates": [ 44.2210275, 15.2861147 ] } },
{ "type": "Feature", "properties": { "osm_id": 7101986185, "osm_type": "nodes", "name": "مدرسة برايت ستارز / مـدرسـة النجوم الساطعة", "name:en": "Bright Stars School BSS", "name:ar": null, "amenity": "school" }, "geometry": { "type": "Point", "coordinates": [ 44.1883816, 15.3053578 ] } },
{ "type": "Feature", "properties": { "osm_id": 4729009991, "osm_type": "nodes", "name": "مدرسة سمية للبنات", "name:en": "Somaiah schoolgirls", "name:ar": "مدرسة سميه للبنات", "amenity": "school" }, "geometry": { "type": "Point", "coordinates": [ 44.2213926, 15.3203406 ] } },
{ "type": "Feature", "properties": { "osm_id": 12621496386, "osm_type": "nodes", "name": "مدارس رواد التكنولوجيا", "name:en": null, "name:ar": null, "amenity": "school" }, "geometry": { "type": "Point", "coordinates": [ 44.2209915, 15.2871028 ] } },
{ "type": "Feature", "properties": { "osm_id": 4298024862, "osm_type": "nodes", "name": "مدرسة عقبة بن نافع", "name:en": "School", "name:ar": "مدرسة عقبه ابن نافع", "amenity": "school" }, "geometry": { "type": "Point", "coordinates": [ 45.0399135, 12.7807826 ] } },
{ "type": "Feature", "properties": { "osm_id": 12622792030, "osm_type": "nodes", "name": "مدرسة أم القرى", "name:en": null, "name:ar": null, "amenity": "school" }, "geometry": { "type": "Point", "coordinates": [ 44.0234909, 13.5914898 ] } },
{ "type": "Feature", "properties": { "osm_id": 12622850908, "osm_type": "nodes", "name": "مدرسة سبأ الأهلية", "name:en": null, "name:ar": null, "amenity": "school" }, "geometry": { "type": "Point", "coordinates": [ 42.9683016, 14.7888892 ] } },
{ "type": "Feature", "properties": { "osm_id": 12621496383, "osm_type": "nodes", "name": "مدارس الرضوان الأهلية", "name:en": null, "name:ar": null, "amenity": "school" }, "geometry": { "type": "Point", "coordinates": [ 44.2196202, 15.2867142 ] } },
{ "type": "Feature", "properties": { "osm_id": 12621500059, "osm_type": "nodes", "name": "مدرسة ابن النفيس النموذجية", "name:en": null, "name:ar": null, "amenity": "school" }, "geometry": { "type": "Point", "coordinates": [ 44.2345467, 15.2862692 ] } },
{ "type": "Feature", "properties": { "osm_id": 12621500061, "osm_type": "nodes", "name": "مدارس سما اليمن الدولية", "name:en": null, "name:ar": null, "amenity": "school" }, "geometry": { "type": "Point", "coordinates": [ 44.2365191, 15.286468 ] } },
{ "type": "Feature", "properties": { "osm_id": 12622956029, "osm_type": "nodes", "name": "مدرسة أروى بنت أحمد الصليحي النموذجية", "name:en": null, "name:ar": null, "amenity": "school" }, "geometry": { "type": "Point", "coordinates": [ 42.9563162, 14.7997189 ] } },
{ "type": "Feature", "properties": { "osm_id": 12622956031, "osm_type": "nodes", "name": "مدارس الخالد النموذجية الاهلية", "name:en": null, "name:ar": null, "amenity": "school" }, "geometry": { "type": "Point", "coordinates": [ 42.9570235, 14.8004184 ] } },
{ "type": "Feature", "properties": { "osm_id": 5002271822, "osm_type": "nodes", "name": "مدرسة النور", "name:en": null, "name:ar": "مدرسة النور", "amenity": "school" }, "geometry": { "type": "Point", "coordinates": [ 42.958866, 14.7933629 ] } },
{ "type": "Feature", "properties": { "osm_id": 6510668386, "osm_type": "nodes", "name": "مدرسة 26 سبتمبر للبنات", "name:en": null, "name:ar": null, "amenity": "school" }, "geometry": { "type": "Point", "coordinates": [ 42.9388772, 14.8087872 ] } },
{ "type": "Feature", "properties": { "osm_id": 12622956079, "osm_type": "nodes", "name": "مدرسة التوفيق", "name:en": null, "name:ar": null, "amenity": "school" }, "geometry": { "type": "Point", "coordinates": [ 42.9343488, 14.8070563 ] } },
{ "type": "Feature", "properties": { "osm_id": 12622956085, "osm_type": "nodes", "name": "مدرسة رياض العرفان", "name:en": null, "name:ar": null, "amenity": "school" }, "geometry": { "type": "Point", "coordinates": [ 42.9364305, 14.800869 ] } },
{ "type": "Feature", "properties": { "osm_id": 12622956099, "osm_type": "nodes", "name": "مدرسة عذبان", "name:en": null, "name:ar": null, "amenity": "school" }, "geometry": { "type": "Point", "coordinates": [ 42.9480478, 14.7851261 ] } },
{ "type": "Feature", "properties": { "osm_id": 8387846020, "osm_type": "nodes", "name": "مدرسة صلاح الدين الايوبي", "name:en": "Salah El Din Al Ayoubi School", "name:ar": null, "amenity": "school" }, "geometry": { "type": "Point", "coordinates": [ 44.5669375, 14.2073081 ] } },
{ "type": "Feature", "properties": { "osm_id": 8383195517, "osm_type": "nodes", "name": "مدارس الأمين الأهلية", "name:en": null, "name:ar": null, "amenity": "school" }, "geometry": { "type": "Point", "coordinates": [ 44.1907625, 15.3042138 ] } },
{ "type": "Feature", "properties": { "osm_id": 11256944710, "osm_type": "nodes", "name": null, "name:en": null, "name:ar": null, "amenity": "school" }, "geometry": { "type": "Point", "coordinates": [ 47.9723918, 15.0179986 ] } },
{ "type": "Feature", "properties": { "osm_id": 12622956037, "osm_type": "nodes", "name": "مدرسة عثمان بن عفان", "name:en": null, "name:ar": null, "amenity": "school" }, "geometry": { "type": "Point", "coordinates": [ 42.9588886, 14.8016002 ] } },
{ "type": "Feature", "properties": { "osm_id": 12622956043, "osm_type": "nodes", "name": "مدرسة علي عبدالمغني", "name:en": null, "name:ar": null, "amenity": "school" }, "geometry": { "type": "Point", "coordinates": [ 42.9590396, 14.8058229 ] } },
{ "type": "Feature", "properties": { "osm_id": 12622956047, "osm_type": "nodes", "name": "مدرسة أبو بكر الصديق", "name:en": null, "name:ar": null, "amenity": "school" }, "geometry": { "type": "Point", "coordinates": [ 42.9508309, 14.8109971 ] } },
{ "type": "Feature", "properties": { "osm_id": 12622956088, "osm_type": "nodes", "name": "مجمع السعيد", "name:en": null, "name:ar": null, "amenity": "school" }, "geometry": { "type": "Point", "coordinates": [ 42.9413935, 14.7959952 ] } },
{ "type": "Feature", "properties": { "osm_id": 8390154717, "osm_type": "nodes", "name": "مجمع الأمل التربوي", "name:en": "Al-Amal Educational Complex", "name:ar": null, "amenity": "school" }, "geometry": { "type": "Point", "coordinates": [ 44.5826755, 14.2235587 ] } },
{ "type": "Feature", "properties": { "osm_id": 11256946272, "osm_type": "nodes", "name": null, "name:en": null, "name:ar": null, "amenity": "school" }, "geometry": { "type": "Point", "coordinates": [ 47.8939225, 15.0384944 ] } },
{ "type": "Feature", "properties": { "osm_id": 8589859417, "osm_type": "nodes", "name": "النورس", "name:en": null, "name:ar": null, "amenity": "kindergarten" }, "geometry": { "type": "Point", "coordinates": [ 43.258912, 13.3207405 ] } },
{ "type": "Feature", "properties": { "osm_id": 7830809886, "osm_type": "nodes", "name": "روضة أروى", "name:en": null, "name:ar": "روضه الفيحاء", "amenity": "kindergarten" }, "geometry": { "type": "Point", "coordinates": [ 44.9926378, 12.8730215 ] } },
{ "type": "Feature", "properties": { "osm_id": 7830809888, "osm_type": "nodes", "name": "روضة أروى", "name:en": null, "name:ar": null, "amenity": "kindergarten" }, "geometry": { "type": "Point", "coordinates": [ 44.9992084, 12.8685503 ] } },
{ "type": "Feature", "properties": { "osm_id": 6045098588, "osm_type": "nodes", "name": "رئاسة جامعة الحديدة", "name:en": null, "name:ar": null, "amenity": "college" }, "geometry": { "type": "Point", "coordinates": [ 42.9539578, 14.769519 ] } },
{ "type": "Feature", "properties": { "osm_id": 12622956014, "osm_type": "nodes", "name": "كلية الشفاء للعلوم الطبية والتقنية", "name:en": null, "name:ar": null, "amenity": "college" }, "geometry": { "type": "Point", "coordinates": [ 42.9630551, 14.7920047 ] } },
{ "type": "Feature", "properties": { "osm_id": 12622976806, "osm_type": "nodes", "name": "كلية التجارة والاقتصاد", "name:en": null, "name:ar": null, "amenity": "college" }, "geometry": { "type": "Point", "coordinates": [ 42.954413, 14.7704959 ] } },
{ "type": "Feature", "properties": { "osm_id": 12622976805, "osm_type": "nodes", "name": "كلية طب الأسنان جامعة الحديدة", "name:en": null, "name:ar": null, "amenity": "college" }, "geometry": { "type": "Point", "coordinates": [ 42.9506891, 14.7768063 ] } },
{ "type": "Feature", "properties": { "osm_id": 8484047721, "osm_type": "nodes", "name": "المعهد التقني الصناعي", "name:en": null, "name:ar": null, "amenity": "university" }, "geometry": { "type": "Point", "coordinates": [ 45.4583528, 14.9749445 ] } },
{ "type": "Feature", "properties": { "osm_id": 9911090912, "osm_type": "nodes", "name": "جامعة المستقبل", "name:en": null, "name:ar": null, "amenity": "university" }, "geometry": { "type": "Point", "coordinates": [ 44.1861142, 15.3371952 ] } },
{ "type": "Feature", "properties": { "osm_id": 6929026285, "osm_type": "nodes", "name": "جامعة العلوم والتكنولوجيا", "name:en": null, "name:ar": null, "amenity": "university" }, "geometry": { "type": "Point", "coordinates": [ 42.9651215, 14.7878204 ] } },
{ "type": "Feature", "properties": { "osm_id": 11254662720, "osm_type": "nodes", "name": "مدرسة الظهرة", "name:en": null, "name:ar": null, "amenity": "school" }, "geometry": { "type": "Point", "coordinates": [ 47.7635792, 14.665699 ] } },
{ "type": "Feature", "properties": { "osm_id": 5778994977, "osm_type": "nodes", "name": "مدرسة الأنفال", "name:en": "Alanfal school", "name:ar": null, "amenity": "school" }, "geometry": { "type": "Point", "coordinates": [ 44.1923278, 15.3293772 ] } },
{ "type": "Feature", "properties": { "osm_id": 11256946552, "osm_type": "nodes", "name": null, "name:en": null, "name:ar": null, "amenity": "school" }, "geometry": { "type": "Point", "coordinates": [ 47.8827779, 15.076617 ] } },
{ "type": "Feature", "properties": { "osm_id": 6604549608, "osm_type": "nodes", "name": "معهد هايبراو للتدريب والتأهيل", "name:en": null, "name:ar": null, "amenity": "school" }, "geometry": { "type": "Point", "coordinates": [ 44.7335272, 13.7063128 ] } },
{ "type": "Feature", "properties": { "osm_id": 4687831690, "osm_type": "nodes", "name": "معهد ذهبان", "name:en": "Dahban Institute", "name:ar": "معهد ذهبان", "amenity": "school" }, "geometry": { "type": "Point", "coordinates": [ 44.1951272, 15.4191911 ] } },
{ "type": "Feature", "properties": { "osm_id": 1841773443, "osm_type": "nodes", "name": null, "name:en": null, "name:ar": null, "amenity": "school" }, "geometry": { "type": "Point", "coordinates": [ 49.1291831, 14.5448925 ] } },
{ "type": "Feature", "properties": { "osm_id": 1841773447, "osm_type": "nodes", "name": null, "name:en": null, "name:ar": null, "amenity": "school" }, "geometry": { "type": "Point", "coordinates": [ 49.1284835, 14.5451825 ] } },
{ "type": "Feature", "properties": { "osm_id": 1841773468, "osm_type": "nodes", "name": null, "name:en": null, "name:ar": null, "amenity": "school" }, "geometry": { "type": "Point", "coordinates": [ 49.1281961, 14.5457574 ] } },
{ "type": "Feature", "properties": { "osm_id": 1841773470, "osm_type": "nodes", "name": null, "name:en": null, "name:ar": null, "amenity": "school" }, "geometry": { "type": "Point", "coordinates": [ 49.1283792, 14.5465512 ] } },
{ "type": "Feature", "properties": { "osm_id": 1869319799, "osm_type": "nodes", "name": "منتزة لاند", "name:en": null, "name:ar": null, "amenity": "kindergarten" }, "geometry": { "type": "Point", "coordinates": [ 44.3687698, 14.2984942 ] } },
{ "type": "Feature", "properties": { "osm_id": 1841773510, "osm_type": "nodes", "name": null, "name:en": null, "name:ar": null, "amenity": "university" }, "geometry": { "type": "Point", "coordinates": [ 49.115185, 14.550311 ] } },
{ "type": "Feature", "properties": { "osm_id": 1841773519, "osm_type": "nodes", "name": null, "name:en": null, "name:ar": null, "amenity": "university" }, "geometry": { "type": "Point", "coordinates": [ 49.1159039, 14.550716 ] } },
{ "type": "Feature", "properties": { "osm_id": 11250603450, "osm_type": "nodes", "name": null, "name:en": null, "name:ar": null, "amenity": "school" }, "geometry": { "type": "Point", "coordinates": [ 49.3514063, 16.1402812 ] } },
{ "type": "Feature", "properties": { "osm_id": 11250603524, "osm_type": "nodes", "name": "مدرسة كثيبة", "name:en": null, "name:ar": null, "amenity": "school" }, "geometry": { "type": "Point", "coordinates": [ 49.2980282, 14.7644666 ] } },
{ "type": "Feature", "properties": { "osm_id": 11250603710, "osm_type": "nodes", "name": "مدرسة وائل بن حجر", "name:en": null, "name:ar": null, "amenity": "school" }, "geometry": { "type": "Point", "coordinates": [ 49.4569013, 15.0333046 ] } },
{ "type": "Feature", "properties": { "osm_id": 11250603712, "osm_type": "nodes", "name": null, "name:en": null, "name:ar": null, "amenity": "school" }, "geometry": { "type": "Point", "coordinates": [ 49.4480954, 15.0487855 ] } },
{ "type": "Feature", "properties": { "osm_id": 11248139722, "osm_type": "nodes", "name": null, "name:en": null, "name:ar": null, "amenity": "school" }, "geometry": { "type": "Point", "coordinates": [ 48.7662452, 14.5238722 ] } },
{ "type": "Feature", "properties": { "osm_id": 11248196758, "osm_type": "nodes", "name": null, "name:en": null, "name:ar": null, "amenity": "school" }, "geometry": { "type": "Point", "coordinates": [ 48.8055235, 14.5817612 ] } },
{ "type": "Feature", "properties": { "osm_id": 11248196760, "osm_type": "nodes", "name": null, "name:en": null, "name:ar": null, "amenity": "school" }, "geometry": { "type": "Point", "coordinates": [ 48.8298087, 14.5560375 ] } },
{ "type": "Feature", "properties": { "osm_id": 8295567606, "osm_type": "nodes", "name": null, "name:en": null, "name:ar": null, "amenity": "school" }, "geometry": { "type": "Point", "coordinates": [ 49.4958812, 15.0047693 ] } },
{ "type": "Feature", "properties": { "osm_id": 8285674718, "osm_type": "nodes", "name": "شهداء البطحة والقلفان", "name:en": null, "name:ar": null, "amenity": "school" }, "geometry": { "type": "Point", "coordinates": [ 44.2631713, 15.2959484 ] } },
{ "type": "Feature", "properties": { "osm_id": 8529721657, "osm_type": "nodes", "name": "مدرسة ثبي للتعليم الأساسي بنات", "name:en": null, "name:ar": null, "amenity": "school" }, "geometry": { "type": "Point", "coordinates": [ 48.9871681, 16.0225147 ] } },
{ "type": "Feature", "properties": { "osm_id": 4285426389, "osm_type": "nodes", "name": "مركز دار المصطفى للدراسات الاسلامية", "name:en": null, "name:ar": null, "amenity": "school" }, "geometry": { "type": "Point", "coordinates": [ 48.975404, 16.0504555 ] } },
{ "type": "Feature", "properties": { "osm_id": 4285426689, "osm_type": "nodes", "name": "مدرسة عيديد الابتدائية للبنين", "name:en": null, "name:ar": null, "amenity": "school" }, "geometry": { "type": "Point", "coordinates": [ 48.9840341, 16.0527739 ] } },
{ "type": "Feature", "properties": { "osm_id": 12634774201, "osm_type": "nodes", "name": "مدرسة شريوف للتعليم الأساسي", "name:en": null, "name:ar": null, "amenity": "school" }, "geometry": { "type": "Point", "coordinates": [ 49.0033052, 15.8945624 ] } },
{ "type": "Feature", "properties": { "osm_id": 8758254742, "osm_type": "nodes", "name": null, "name:en": null, "name:ar": null, "amenity": "school" }, "geometry": { "type": "Point", "coordinates": [ 49.1446002, 16.143954 ] } },
{ "type": "Feature", "properties": { "osm_id": 1841772579, "osm_type": "nodes", "name": null, "name:en": null, "name:ar": null, "amenity": "university" }, "geometry": { "type": "Point", "coordinates": [ 49.0254017, 14.4833119 ] } },
{ "type": "Feature", "properties": { "osm_id": 6508973494, "osm_type": "nodes", "name": "جامعة الاتحاد للعلوم والتكنولوجيا", "name:en": "Union University of Science and Technology", "name:ar": null, "amenity": "university" }, "geometry": { "type": "Point", "coordinates": [ 44.173167, 15.337549 ] } },
{ "type": "Feature", "properties": { "osm_id": 3798774686, "osm_type": "nodes", "name": "مدرسة الخير - الرام أعبوس", "name:en": null, "name:ar": null, "amenity": null }, "geometry": { "type": "Point", "coordinates": [ 44.2645178, 13.2764121 ] } },
{ "type": "Feature", "properties": { "osm_id": 4378929789, "osm_type": "nodes", "name": "ادارة التربيه والتعليم", "name:en": null, "name:ar": "ادارة التربيه والتعليم", "amenity": "school" }, "geometry": { "type": "Point", "coordinates": [ 50.4757441, 15.0418385 ] } },
{ "type": "Feature", "properties": { "osm_id": 6936517920, "osm_type": "nodes", "name": "مدرسة القادسية", "name:en": "Al `qadesya", "name:ar": "مدرسة القادسية", "amenity": "school" }, "geometry": { "type": "Point", "coordinates": [ 44.0225324, 13.4859072 ] } },
{ "type": "Feature", "properties": { "osm_id": 8740465017, "osm_type": "nodes", "name": "مدرسة النهضة للبنات", "name:en": null, "name:ar": null, "amenity": "school" }, "geometry": { "type": "Point", "coordinates": [ 44.2970619, 13.3775577 ] } },
{ "type": "Feature", "properties": { "osm_id": 7610592776, "osm_type": "nodes", "name": "مدرسة الانطلاق الشعبية", "name:en": null, "name:ar": null, "amenity": "school" }, "geometry": { "type": "Point", "coordinates": [ 44.3851241, 13.2307488 ] } },
{ "type": "Feature", "properties": { "osm_id": 7610607456, "osm_type": "nodes", "name": "ملحق مدرسة الانوار", "name:en": null, "name:ar": null, "amenity": "school" }, "geometry": { "type": "Point", "coordinates": [ 44.4039523, 13.2410225 ] } },
{ "type": "Feature", "properties": { "osm_id": 6499676032, "osm_type": "nodes", "name": null, "name:en": null, "name:ar": null, "amenity": "school" }, "geometry": { "type": "Point", "coordinates": [ 44.3435401, 13.1014338 ] } },
{ "type": "Feature", "properties": { "osm_id": 4564848389, "osm_type": "nodes", "name": "مدرسه الزبير ماره الشويفه", "name:en": null, "name:ar": null, "amenity": "school" }, "geometry": { "type": "Point", "coordinates": [ 44.3153474, 13.3379903 ] } },
{ "type": "Feature", "properties": { "osm_id": 7433457015, "osm_type": "nodes", "name": "مدرسة النصر فرعين اعبوس تأسست عام 1962م", "name:en": null, "name:ar": null, "amenity": "school" }, "geometry": { "type": "Point", "coordinates": [ 44.3003426, 13.2847729 ] } },
{ "type": "Feature", "properties": { "osm_id": 6419107913, "osm_type": "nodes", "name": "جامعة الحكمة", "name:en": null, "name:ar": null, "amenity": "university" }, "geometry": { "type": "Point", "coordinates": [ 44.4008141, 14.5300627 ] } },
{ "type": "Feature", "properties": { "osm_id": 8245834795, "osm_type": "nodes", "name": "مدرسه. النور", "name:en": null, "name:ar": null, "amenity": "school" }, "geometry": { "type": "Point", "coordinates": [ 44.3622382, 15.1237175 ] } },
{ "type": "Feature", "properties": { "osm_id": 6395359331, "osm_type": "nodes", "name": "مدرسة فاطمة الزهراء النموذجية", "name:en": null, "name:ar": "مدرسة فاطمة الزهراء النموذجية", "amenity": "school" }, "geometry": { "type": "Point", "coordinates": [ 45.0088572, 12.7902818 ] } },
{ "type": "Feature", "properties": { "osm_id": 4319654692, "osm_type": "nodes", "name": "مدارس البقرين", "name:en": null, "name:ar": null, "amenity": "school" }, "geometry": { "type": "Point", "coordinates": [ 49.1333781, 14.5560765 ] } },
{ "type": "Feature", "properties": { "osm_id": 6395359320, "osm_type": "nodes", "name": "المعهد التقني الصناعي", "name:en": "Technical Industrial Institute", "name:ar": "المعهد التقني الصناعي", "amenity": "college" }, "geometry": { "type": "Point", "coordinates": [ 45.0052175, 12.7897013 ] } },
{ "type": "Feature", "properties": { "osm_id": 5108002625, "osm_type": "nodes", "name": "مجمع كليات المستقبل - جامعة حضرموت", "name:en": "Hadhramut university colection of future fucaltes", "name:ar": null, "amenity": "college" }, "geometry": { "type": "Point", "coordinates": [ 49.0576042, 14.4931684 ] } },
{ "type": "Feature", "properties": { "osm_id": 4298022286, "osm_type": "nodes", "name": "مدرسه", "name:en": null, "name:ar": null, "amenity": "school" }, "geometry": { "type": "Point", "coordinates": [ 49.021297, 15.986052 ] } },
{ "type": "Feature", "properties": { "osm_id": 4298024816, "osm_type": "nodes", "name": "مدرسه", "name:en": null, "name:ar": null, "amenity": "school" }, "geometry": { "type": "Point", "coordinates": [ 48.332248, 15.322237 ] } },
{ "type": "Feature", "properties": { "osm_id": 6672556614, "osm_type": "nodes", "name": "مدرسة السيدة خديجة للبنات", "name:en": null, "name:ar": null, "amenity": "school" }, "geometry": { "type": "Point", "coordinates": [ 48.7775322, 15.9456086 ] } },
{ "type": "Feature", "properties": { "osm_id": 4298023253, "osm_type": "nodes", "name": "ثانوية باكثير للبنات", "name:en": null, "name:ar": null, "amenity": "school" }, "geometry": { "type": "Point", "coordinates": [ 48.7968265, 15.9363145 ] } },
{ "type": "Feature", "properties": { "osm_id": 5950924113, "osm_type": "nodes", "name": "مدرسة النصر المبين", "name:en": "Alnser almobeen school", "name:ar": null, "amenity": "school" }, "geometry": { "type": "Point", "coordinates": [ 44.1732185, 15.463509 ] } },
{ "type": "Feature", "properties": { "osm_id": 6050924689, "osm_type": "nodes", "name": "مؤسسة القيادات الشابة", "name:en": null, "name:ar": null, "amenity": "school" }, "geometry": { "type": "Point", "coordinates": [ 44.2014263, 15.3369038 ] } },
{ "type": "Feature", "properties": { "osm_id": 4298024864, "osm_type": "nodes", "name": null, "name:en": null, "name:ar": null, "amenity": "school" }, "geometry": { "type": "Point", "coordinates": [ 44.198256, 15.342407 ] } },
{ "type": "Feature", "properties": { "osm_id": 10624927345, "osm_type": "nodes", "name": "مدارس كنوز المعرفة", "name:en": null, "name:ar": null, "amenity": "school" }, "geometry": { "type": "Point", "coordinates": [ 44.1882068, 15.3340001 ] } },
{ "type": "Feature", "properties": { "osm_id": 7014822385, "osm_type": "nodes", "name": "معهد ساي للغات", "name:en": null, "name:ar": null, "amenity": "school" }, "geometry": { "type": "Point", "coordinates": [ 44.199401, 15.325214 ] } },
{ "type": "Feature", "properties": { "osm_id": 5878121457, "osm_type": "nodes", "name": "مدارس حدة الحديثة", "name:en": null, "name:ar": null, "amenity": "school" }, "geometry": { "type": "Point", "coordinates": [ 44.197669, 15.3216453 ] } },
{ "type": "Feature", "properties": { "osm_id": 4298023658, "osm_type": "nodes", "name": "كلية المجتمع", "name:en": null, "name:ar": null, "amenity": "college" }, "geometry": { "type": "Point", "coordinates": [ 48.829122, 15.961375 ] } },
{ "type": "Feature", "properties": { "osm_id": 10649030366, "osm_type": "nodes", "name": "جاامعة سبأ- عمادة الدراسات العليا", "name:en": null, "name:ar": null, "amenity": "college" }, "geometry": { "type": "Point", "coordinates": [ 44.1976104, 15.3276091 ] } },
{ "type": "Feature", "properties": { "osm_id": 7294950957, "osm_type": "nodes", "name": "مدرسة الفاروق", "name:en": "Madrasat al Faruq", "name:ar": "مدرسة الفاروق", "amenity": "school" }, "geometry": { "type": "Point", "coordinates": [ 44.21325, 15.37428 ] } },
{ "type": "Feature", "properties": { "osm_id": 4242721497, "osm_type": "nodes", "name": "مدرسة سبأ الحكومية للبنين", "name:en": "shiba school for boys", "name:ar": "مدرسة سبأ الحكومية للبنين", "amenity": "school" }, "geometry": { "type": "Point", "coordinates": [ 44.2050393, 15.3697951 ] } },
{ "type": "Feature", "properties": { "osm_id": 7746360485, "osm_type": "nodes", "name": "مدرسة بدر الكبرى", "name:en": "Badr high school", "name:ar": null, "amenity": "school" }, "geometry": { "type": "Point", "coordinates": [ 44.1726274, 15.3677327 ] } },
{ "type": "Feature", "properties": { "osm_id": 4354453190, "osm_type": "nodes", "name": "مدرسة الشهيد الوزير", "name:en": null, "name:ar": "مدرسة الشهيد الوزير", "amenity": "school" }, "geometry": { "type": "Point", "coordinates": [ 44.4125885, 15.5038851 ] } },
{ "type": "Feature", "properties": { "osm_id": 4365789127, "osm_type": "nodes", "name": null, "name:en": null, "name:ar": "مدرسة الشهيد الصايدي", "amenity": "school" }, "geometry": { "type": "Point", "coordinates": [ 44.2490781, 15.4344215 ] } },
{ "type": "Feature", "properties": { "osm_id": 8532053861, "osm_type": "nodes", "name": null, "name:en": null, "name:ar": null, "amenity": "school" }, "geometry": { "type": "Point", "coordinates": [ 48.7705153, 15.9334761 ] } },
{ "type": "Feature", "properties": { "osm_id": 4298021356, "osm_type": "nodes", "name": "Algaren Boys School", "name:en": null, "name:ar": null, "amenity": "school" }, "geometry": { "type": "Point", "coordinates": [ 48.800626, 15.944123 ] } },
{ "type": "Feature", "properties": { "osm_id": 4298021357, "osm_type": "nodes", "name": "Algaren Girls School", "name:en": null, "name:ar": null, "amenity": "school" }, "geometry": { "type": "Point", "coordinates": [ 48.800368, 15.943093 ] } },
{ "type": "Feature", "properties": { "osm_id": 4327638769, "osm_type": "nodes", "name": "ثانوية النهضة", "name:en": null, "name:ar": null, "amenity": "school" }, "geometry": { "type": "Point", "coordinates": [ 48.7919695, 15.9377974 ] } },
{ "type": "Feature", "properties": { "osm_id": 8733634517, "osm_type": "nodes", "name": "مدرسة عثمان بن عفان(غصيص)", "name:en": "School Othman bn Afan", "name:ar": null, "amenity": "school" }, "geometry": { "type": "Point", "coordinates": [ 48.4495684, 15.8904215 ] } },
{ "type": "Feature", "properties": { "osm_id": 4701257490, "osm_type": "nodes", "name": "الأحمر", "name:en": null, "name:ar": "الأحمر", "amenity": "school" }, "geometry": { "type": "Point", "coordinates": [ 44.2161621, 15.3898887 ] } },
{ "type": "Feature", "properties": { "osm_id": 6619156587, "osm_type": "nodes", "name": "مدرسة غمدان النموذجية", "name:en": null, "name:ar": null, "amenity": "school" }, "geometry": { "type": "Point", "coordinates": [ 44.210976, 15.3991749 ] } },
{ "type": "Feature", "properties": { "osm_id": 6619156588, "osm_type": "nodes", "name": "مدرسة اقرأ", "name:en": null, "name:ar": null, "amenity": "school" }, "geometry": { "type": "Point", "coordinates": [ 44.2113921, 15.398156 ] } },
{ "type": "Feature", "properties": { "osm_id": 6059929636, "osm_type": "nodes", "name": "مدرسة 14 أكتوبر", "name:en": null, "name:ar": null, "amenity": "school" }, "geometry": { "type": "Point", "coordinates": [ 44.2240402, 15.3858091 ] } },
{ "type": "Feature", "properties": { "osm_id": 5132001925, "osm_type": "nodes", "name": "مدارس النهضة", "name:en": "Al-Nahdha School", "name:ar": "مدارس النهضه", "amenity": "school" }, "geometry": { "type": "Point", "coordinates": [ 44.1849679, 15.3901479 ] } },
{ "type": "Feature", "properties": { "osm_id": 10160025059, "osm_type": "nodes", "name": "مدريسة واحة العلم الأهلية", "name:en": null, "name:ar": null, "amenity": "school" }, "geometry": { "type": "Point", "coordinates": [ 44.195137, 15.3852545 ] } },
{ "type": "Feature", "properties": { "osm_id": 4636990197, "osm_type": "nodes", "name": "مدرسة الشهيد حميد القديمي", "name:en": null, "name:ar": "مدرسة الشهيد حميد القديمي", "amenity": "school" }, "geometry": { "type": "Point", "coordinates": [ 44.2057551, 15.4064305 ] } },
{ "type": "Feature", "properties": { "osm_id": 5959820394, "osm_type": "nodes", "name": null, "name:en": null, "name:ar": null, "amenity": "school" }, "geometry": { "type": "Point", "coordinates": [ 44.2045356, 15.4076129 ] } },
{ "type": "Feature", "properties": { "osm_id": 5372932322, "osm_type": "nodes", "name": "كلية المجتمع", "name:en": "Community College", "name:ar": "كلية المجتمع", "amenity": "college" }, "geometry": { "type": "Point", "coordinates": [ 44.2504525, 15.4067847 ] } },
{ "type": "Feature", "properties": { "osm_id": 3773070278, "osm_type": "nodes", "name": "مدرسة جيل الوحدة", "name:en": null, "name:ar": "مدرسة جيل الوحدة", "amenity": null }, "geometry": { "type": "Point", "coordinates": [ 44.238231, 15.4547208 ] } },
{ "type": "Feature", "properties": { "osm_id": 7004170485, "osm_type": "nodes", "name": "حضانة اطفال عمران", "name:en": null, "name:ar": null, "amenity": "kindergarten" }, "geometry": { "type": "Point", "coordinates": [ 44.1847617, 15.3852547 ] } },
{ "type": "Feature", "properties": { "osm_id": 11092808505, "osm_type": "nodes", "name": null, "name:en": "EXCEL ETA for training", "name:ar": null, "amenity": "school" }, "geometry": { "type": "Point", "coordinates": [ 44.2150528, 15.410609 ] } },
{ "type": "Feature", "properties": { "osm_id": 4356805693, "osm_type": "nodes", "name": "مدرسة الريضة", "name:en": null, "name:ar": null, "amenity": "school" }, "geometry": { "type": "Point", "coordinates": [ 49.0222857, 15.9866128 ] } },
{ "type": "Feature", "properties": { "osm_id": 4601156889, "osm_type": "nodes", "name": "مدرسة السويري بنات", "name:en": null, "name:ar": "مدرسة السويري بنات", "amenity": "school" }, "geometry": { "type": "Point", "coordinates": [ 49.0240103, 15.9767874 ] } },
{ "type": "Feature", "properties": { "osm_id": 4328044926, "osm_type": "nodes", "name": "مدرسة القارة", "name:en": null, "name:ar": null, "amenity": "school" }, "geometry": { "type": "Point", "coordinates": [ 48.9591157, 15.9790071 ] } },
{ "type": "Feature", "properties": { "osm_id": 1869250563, "osm_type": "nodes", "name": "مدرسة خالد بن الوليد", "name:en": null, "name:ar": null, "amenity": "school" }, "geometry": { "type": "Point", "coordinates": [ 44.3780172, 14.296547 ] } },
{ "type": "Feature", "properties": { "osm_id": 5877278585, "osm_type": "nodes", "name": "مدارس إكليل اليمن الحديثة", "name:en": "Eklell Al-Yemen Modern Schools", "name:ar": null, "amenity": "school" }, "geometry": { "type": "Point", "coordinates": [ 44.1762953, 15.3610113 ] } },
{ "type": "Feature", "properties": { "osm_id": 4890392521, "osm_type": "nodes", "name": "استاتيكا للهندسة والتدريب", "name:en": "Statika For Engineering", "name:ar": "استاتيكا للهندسة والتدريب", "amenity": "school" }, "geometry": { "type": "Point", "coordinates": [ 44.1740542, 15.3582507 ] } },
{ "type": "Feature", "properties": { "osm_id": 5875416947, "osm_type": "nodes", "name": "المدرسة السودانية", "name:en": null, "name:ar": null, "amenity": "school" }, "geometry": { "type": "Point", "coordinates": [ 44.1737385, 15.356241 ] } },
{ "type": "Feature", "properties": { "osm_id": 6381704986, "osm_type": "nodes", "name": "مدرسه هائل سعيد انعم", "name:en": null, "name:ar": "مدرسه هائل سعيد انعم", "amenity": "school" }, "geometry": { "type": "Point", "coordinates": [ 44.1772952, 15.3558641 ] } },
{ "type": "Feature", "properties": { "osm_id": 4182489790, "osm_type": "nodes", "name": "مدرسة الرشيد النموذجيه", "name:en": "Alrasheed school", "name:ar": "مدرسة الرشيد النموذجيه", "amenity": "school" }, "geometry": { "type": "Point", "coordinates": [ 44.168162, 15.3481889 ] } },
{ "type": "Feature", "properties": { "osm_id": 6672556613, "osm_type": "nodes", "name": "مدرسة التعاون للبنين", "name:en": null, "name:ar": null, "amenity": "school" }, "geometry": { "type": "Point", "coordinates": [ 48.7779558, 15.9460242 ] } },
{ "type": "Feature", "properties": { "osm_id": 10870233069, "osm_type": "nodes", "name": null, "name:en": null, "name:ar": null, "amenity": "school" }, "geometry": { "type": "Point", "coordinates": [ 50.6108621, 16.4138656 ] } },
{ "type": "Feature", "properties": { "osm_id": 10870154874, "osm_type": "nodes", "name": null, "name:en": null, "name:ar": null, "amenity": "school" }, "geometry": { "type": "Point", "coordinates": [ 50.5287033, 16.4549157 ] } },
{ "type": "Feature", "properties": { "osm_id": 6370084585, "osm_type": "nodes", "name": "مدرسة رابعة العدوية للبنات", "name:en": null, "name:ar": null, "amenity": "school" }, "geometry": { "type": "Point", "coordinates": [ 44.1813847, 15.3386486 ] } },
{ "type": "Feature", "properties": { "osm_id": 5673813421, "osm_type": "nodes", "name": "مدرسة سقطرى", "name:en": null, "name:ar": null, "amenity": "school" }, "geometry": { "type": "Point", "coordinates": [ 44.1810201, 15.3459731 ] } },
{ "type": "Feature", "properties": { "osm_id": 4182489789, "osm_type": "nodes", "name": "مدرسة احباب الله", "name:en": "Ahbab Allah school", "name:ar": "مدرسة احباب الله", "amenity": "school" }, "geometry": { "type": "Point", "coordinates": [ 44.1697865, 15.34713 ] } },
{ "type": "Feature", "properties": { "osm_id": 3256277270, "osm_type": "nodes", "name": "مدرسة أحمد العباسي", "name:en": null, "name:ar": null, "amenity": "school" }, "geometry": { "type": "Point", "coordinates": [ 44.1896221, 15.3501719 ] } },
{ "type": "Feature", "properties": { "osm_id": 3256260078, "osm_type": "nodes", "name": "مدرسة صنعاء الأهلية", "name:en": "Sanaa private school", "name:ar": "مدرسة صنعاء الأهلية", "amenity": "school" }, "geometry": { "type": "Point", "coordinates": [ 44.1898224, 15.353585 ] } },
{ "type": "Feature", "properties": { "osm_id": 3256253227, "osm_type": "nodes", "name": "مدرسة أسماء للبنات", "name:en": null, "name:ar": "مدرسة أسماء للبنات", "amenity": "school" }, "geometry": { "type": "Point", "coordinates": [ 44.1881004, 15.3556914 ] } },
{ "type": "Feature", "properties": { "osm_id": 6937224471, "osm_type": "nodes", "name": "جامعة صنعاء", "name:en": "Jami`at San`a'", "name:ar": "جامعة صنعاء", "amenity": "college" }, "geometry": { "type": "Point", "coordinates": [ 44.186782, 15.367033 ] } },
{ "type": "Feature", "properties": { "osm_id": 8386603619, "osm_type": "nodes", "name": "قاعة الفرنسي", "name:en": null, "name:ar": null, "amenity": "college" }, "geometry": { "type": "Point", "coordinates": [ 44.3783891, 14.5767789 ] } },
{ "type": "Feature", "properties": { "osm_id": 8386604517, "osm_type": "nodes", "name": "كلية الحاسبات ونظم المعلومات", "name:en": null, "name:ar": null, "amenity": "college" }, "geometry": { "type": "Point", "coordinates": [ 44.3755032, 14.5800362 ] } },
{ "type": "Feature", "properties": { "osm_id": 8380927917, "osm_type": "nodes", "name": "قاعة الفنية", "name:en": "Technical Hall", "name:ar": null, "amenity": "college" }, "geometry": { "type": "Point", "coordinates": [ 44.3822952, 14.5788518 ] } },